fsq_category_id,name,short_name,plural_name,icon.prefix,icon.suffix,fsq_place_id,latitude,longitude,distance,email,link,location.address,location.locality,bike_lat,bike_lon,bike_id,free_bikes
4bf58dd8d48988d181941735,Museum,Museum,Museums,https://ss3.4sqi.net/img/categories_v2/arts_entertainment/museum_,.png,4c8a3ba4a92fa093be438fbf,55.86539237825414,-4.3064174398355215,73,museums@glasgowlife.org.uk,/places/4c8a3ba4a92fa093be438fbf,Glasgow Harbour,Glasgow,55.865683,-4.305367,066c99293af108ece27d9b0436c30cc4,11
4bf58dd8d48988d190941735,History Museum,History Museum,History Museums,https://ss3.4sqi.net/img/categories_v2/arts_entertainment/museum_history_,.png,4c8a3ba4a92fa093be438fbf,55.86539237825414,-4.3064174398355215,73,museums@glasgowlife.org.uk,/places/4c8a3ba4a92fa093be438fbf,Glasgow Harbour,Glasgow,55.865683,-4.305367,066c99293af108ece27d9b0436c30cc4,11
4bf58dd8d48988d16d941735,Café,Café,Cafés,https://ss3.4sqi.net/img/categories_v2/food/cafe_,.png,4eaaa5f477c850207ed9fee8,55.86560987402711,-4.305612237322065,17,,/places/4eaaa5f477c850207ed9fee8,Riverside Museum,Glasgow,55.865683,-4.305367,066c99293af108ece27d9b0436c30cc4,11
4bf58dd8d48988d1e2931735,Art Gallery,Art Gallery,Art Galleries,https://ss3.4sqi.net/img/categories_v2/arts_entertainment/artgallery_,.png,4b86d7fcf964a52018a131e3,55.864561960273086,-4.299637237509745,378,work@swg3.tv,/places/4b86d7fcf964a52018a131e3,100 Eastvale Pl.,Glasgow,55.865683,-4.305367,066c99293af108ece27d9b0436c30cc4,11
4bf58dd8d48988d1e5931735,Music Venue,Music Venue,Music Venues,https://ss3.4sqi.net/img/categories_v2/arts_entertainment/musicvenue_,.png,4b86d7fcf964a52018a131e3,55.864561960273086,-4.299637237509745,378,work@swg3.tv,/places/4b86d7fcf964a52018a131e3,100 Eastvale Pl.,Glasgow,55.865683,-4.305367,066c99293af108ece27d9b0436c30cc4,11
4bf58dd8d48988d1f2931735,Performing Arts Venue,Performing Arts,Performing Arts Venues,https://ss3.4sqi.net/img/categories_v2/arts_entertainment/performingarts_,.png,4b86d7fcf964a52018a131e3,55.864561960273086,-4.299637237509745,378,work@swg3.tv,/places/4b86d7fcf964a52018a131e3,100 Eastvale Pl.,Glasgow,55.865683,-4.305367,066c99293af108ece27d9b0436c30cc4,11
52f2ab2ebcbc57f1066b8b46,Supermarket,Supermarket,Supermarkets,https://ss3.4sqi.net/img/categories_v2/shops/food_grocery_,.png,58aef21cbbec6675b65eecd8,55.86933029573313,-4.310619334400909,521,,/places/58aef21cbbec6675b65eecd8,Beith St,Glasgow,55.865683,-4.305367,066c99293af108ece27d9b0436c30cc4,11
4bf58dd8d48988d146941735,Deli,Deli,Delis,https://ss3.4sqi.net/img/categories_v2/food/deli_,.png,5998709fc666662a7e4e370e,55.870770532257694,-4.302951746449208,585,,/places/5998709fc666662a7e4e370e,235 Dumbarton Road,Glasgow,55.865683,-4.305367,066c99293af108ece27d9b0436c30cc4,11
4bf58dd8d48988d110941735,Italian Restaurant,Italian,Italian Restaurants,https://ss3.4sqi.net/img/categories_v2/food/italian_,.png,5998709fc666662a7e4e370e,55.870770532257694,-4.302951746449208,585,,/places/5998709fc666662a7e4e370e,235 Dumbarton Road,Glasgow,55.865683,-4.305367,066c99293af108ece27d9b0436c30cc4,11
52f2ab2ebcbc57f1066b8b46,Supermarket,Supermarket,Supermarkets,https://ss3.4sqi.net/img/categories_v2/shops/food_grocery_,.png,4b7fc178f964a520673c30e3,55.8697902359134,-4.308109586456555,487,,/places/4b7fc178f964a520673c30e3,"1-2 Merkland ct,",Partick,55.865683,-4.305367,066c99293af108ece27d9b0436c30cc4,11
4e0e22f5a56208c4ea9a85a0,Distillery,Distillery,Distilleries,https://ss3.4sqi.net/img/categories_v2/food/brewery_,.png,5a11811aee71206ae6bd8493,55.86235659303398,-4.296682170820891,655,,/places/5a11811aee71206ae6bd8493,100 Stobcross Rd,Glasgow,55.865683,-4.305367,066c99293af108ece27d9b0436c30cc4,11
4bf58dd8d48988d16d941735,Café,Café,Cafés,https://ss3.4sqi.net/img/categories_v2/food/cafe_,.png,58bd9259735a4d22f8e81f69,55.87114062559571,-4.302928276231387,625,,/places/58bd9259735a4d22f8e81f69,5 Hyndland St,Glasgow,55.865683,-4.305367,066c99293af108ece27d9b0436c30cc4,11
4bf58dd8d48988d122941735,Whisky Bar,Whisky Bar,Whisky Bars,https://ss3.4sqi.net/img/categories_v2/nightlife/whiskey_,.png,4b76fff5f964a52018732ee3,55.870957849292736,-4.301520247309088,633,,/places/4b76fff5f964a52018732ee3,206 Dumbarton Rd,Glasgow,55.865683,-4.305367,066c99293af108ece27d9b0436c30cc4,11
4bf58dd8d48988d16d941735,Café,Café,Cafés,https://ss3.4sqi.net/img/categories_v2/food/cafe_,.png,59356f80724750442f2c6442,55.87068775068774,-4.307156132784503,567,downtoearthorganicsltd@gmail.com,/places/59356f80724750442f2c6442,Dumbarton road,Glasgow,55.865683,-4.305367,066c99293af108ece27d9b0436c30cc4,11
4d4b7105d754a06374d81259,Restaurant,Restaurant,Restaurants,https://ss3.4sqi.net/img/categories_v2/food/default_,.png,4bb5ee7eef159c74002e75f7,55.8708621681255,-4.298988726646952,699,info@number16.co.uk,/places/4bb5ee7eef159c74002e75f7,16 Byres Rd,Glasgow,55.865683,-4.305367,066c99293af108ece27d9b0436c30cc4,11
4bf58dd8d48988d11b941735,Pub,Pub,Pubs,https://ss3.4sqi.net/img/categories_v2/nightlife/pub_,.png,4d0263ce3fd4224b72abb677,55.87029571487873,-4.299424679705226,632,,/places/4d0263ce3fd4224b72abb677,141 Dumbarton Rd,Glasgow,55.865683,-4.305367,066c99293af108ece27d9b0436c30cc4,11
4bf58dd8d48988d145941735,Chinese Restaurant,Chinese,Chinese Restaurants,https://ss3.4sqi.net/img/categories_v2/food/asian_,.png,529a38b711d29657e60b9870,55.87016757565704,-4.2987611105419035,646,,/places/529a38b711d29657e60b9870,121 Dumbarton Rd,Glasgow,55.865683,-4.305367,066c99293af108ece27d9b0436c30cc4,11
4bf58dd8d48988d1e0931735,Coffee Shop,Coffee Shop,Coffee Shops,https://ss3.4sqi.net/img/categories_v2/food/coffeeshop_,.png,57ff424738fa621fceda6354,55.87065165755652,-4.3077860564719455,572,,/places/57ff424738fa621fceda6354,Dumbarton Road,Glasgow,55.865683,-4.305367,066c99293af108ece27d9b0436c30cc4,11
4bf58dd8d48988d116941735,Bar,Bar,Bars,https://ss3.4sqi.net/img/categories_v2/nightlife/pub_,.png,50d20bc9e4b029fc6804c7a9,55.87140419243122,-4.300449430187405,705,info@thesparklehorse.com,/places/50d20bc9e4b029fc6804c7a9,Dowanhill Street,Glasgow,55.865683,-4.305367,066c99293af108ece27d9b0436c30cc4,11
4bf58dd8d48988d16d941735,Café,Café,Cafés,https://ss3.4sqi.net/img/categories_v2/food/cafe_,.png,4bc8632f14d7952115eb68e9,55.8709393218008,-4.300923691878001,646,tastystuff@bigmouthcoffeecompany.com,/places/4bc8632f14d7952115eb68e9,167 Dumbarton Road,Glasgow,55.865683,-4.305367,066c99293af108ece27d9b0436c30cc4,11
4bf58dd8d48988d1d0941735,Dessert Shop,Desserts,Dessert Shops,https://ss3.4sqi.net/img/categories_v2/food/dessert_,.png,59d7ddfb0a464d2a789288c0,55.87022164518674,-4.297816281322971,689,,/places/59d7ddfb0a464d2a789288c0,90 Dumbarton Rd,Glasgow,55.865683,-4.305367,066c99293af108ece27d9b0436c30cc4,11
52e81612bcbc57f1066b7a0c,Bubble Tea Shop,Bubble Tea,Bubble Tea Shops,https://ss3.4sqi.net/img/categories_v2/food/bubble_,.png,59d7ddfb0a464d2a789288c0,55.87022164518674,-4.297816281322971,689,,/places/59d7ddfb0a464d2a789288c0,90 Dumbarton Rd,Glasgow,55.865683,-4.305367,066c99293af108ece27d9b0436c30cc4,11
62d5af45da6648532de303ee,Waffle Shop,Waffle Shop,Waffle Shops,https://ss3.4sqi.net/img/categories_v2/food/default_,.png,59d7ddfb0a464d2a789288c0,55.87022164518674,-4.297816281322971,689,,/places/59d7ddfb0a464d2a789288c0,90 Dumbarton Rd,Glasgow,55.865683,-4.305367,066c99293af108ece27d9b0436c30cc4,11
4bf58dd8d48988d11b941735,Pub,Pub,Pubs,https://ss3.4sqi.net/img/categories_v2/nightlife/pub_,.png,57cf101c498e00f91f9e64cc,55.870725,-4.30053,636,,/places/57cf101c498e00f91f9e64cc,165 Dumbarton Rd,,55.865683,-4.305367,066c99293af108ece27d9b0436c30cc4,11
4bf58dd8d48988d1c5941735,Sandwich Spot,Sandwich Spot,Sandwich Spots,https://ss3.4sqi.net/img/categories_v2/food/deli_,.png,4e8ef9707ee6c06365c0a110,55.86284423707892,-4.31164221934564,502,,/places/4e8ef9707ee6c06365c0a110,"Unit 3, 795 Govan Cross Shopping Center",Glasgow,55.865683,-4.305367,066c99293af108ece27d9b0436c30cc4,11
4bf58dd8d48988d16e941735,Fast Food Restaurant,Fast Food,Fast Food Restaurants,https://ss3.4sqi.net/img/categories_v2/food/fastfood_,.png,4e8ef9707ee6c06365c0a110,55.86284423707892,-4.31164221934564,502,,/places/4e8ef9707ee6c06365c0a110,"Unit 3, 795 Govan Cross Shopping Center",Glasgow,55.865683,-4.305367,066c99293af108ece27d9b0436c30cc4,11
52dea92d3cf9994f4e043dbb,Discount Store,Discount Store,Discount Stores,https://ss3.4sqi.net/img/categories_v2/shops/discountstore_,.png,52ab0a90498eb5fe36df7bef,55.86269890330697,-4.312338732667451,546,,/places/52ab0a90498eb5fe36df7bef,Govan Rd,Glasgow,55.865683,-4.305367,066c99293af108ece27d9b0436c30cc4,11
4bf58dd8d48988d1ce941735,Seafood Restaurant,Seafood,Seafood Restaurants,https://ss3.4sqi.net/img/categories_v2/food/seafood_,.png,4c82b54751ada1cd13611f10,55.87014455373044,-4.297856995906029,681,info@twofatladiesrestaurant.com,/places/4c82b54751ada1cd13611f10,88 Dumbarton Road,Glasgow,55.865683,-4.305367,066c99293af108ece27d9b0436c30cc4,11
4bf58dd8d48988d132941735,Church,Church,Churches,https://ss3.4sqi.net/img/categories_v2/building/religious_church_,.png,5199bff9498e5fc36fe864aa,55.86300763090446,-4.310630784948631,442,,/places/5199bff9498e5fc36fe864aa,,,55.865683,-4.305367,066c99293af108ece27d9b0436c30cc4,11
4bf58dd8d48988d16a941735,Bakery,Bakery,Bakeries,https://ss3.4sqi.net/img/categories_v2/food/bakery_,.png,54903499498e001b3b2403e5,55.87238411109764,-4.302371212388248,767,myhomebakeryglasgow@gmail.com,/places/54903499498e001b3b2403e5,,Glasgow,55.865683,-4.305367,066c99293af108ece27d9b0436c30cc4,11
4bf58dd8d48988d16d941735,Café,Café,Cafés,https://ss3.4sqi.net/img/categories_v2/food/cafe_,.png,4b72bddaf964a5205f862de3,55.87281753518404,-4.302003827762743,820,,/places/4b72bddaf964a5205f862de3,66 Hyndland St,Glasgow,55.865683,-4.305367,066c99293af108ece27d9b0436c30cc4,11
4bf58dd8d48988d1db931735,Tapas Restaurant,Tapas,Tapas Restaurants,https://ss3.4sqi.net/img/categories_v2/food/tapas_,.png,579280f5498ea4119635ed29,55.867470578704115,-4.293418828164381,771,,/places/579280f5498ea4119635ed29,90 Old Dumbarton Rd,Glasgow,55.865683,-4.305367,066c99293af108ece27d9b0436c30cc4,11
4d4b7105d754a06374d81259,Restaurant,Restaurant,Restaurants,https://ss3.4sqi.net/img/categories_v2/food/default_,.png,591a0dcd81348848d830ae17,55.87162590326761,-4.3027331208663115,680,,/places/591a0dcd81348848d830ae17,27 Hyndland St,Glasgow,55.865683,-4.305367,066c99293af108ece27d9b0436c30cc4,11
4bf58dd8d48988d148941735,Donut Shop,Donuts,Donut Shops,https://ss3.4sqi.net/img/categories_v2/food/donuts_,.png,56752941498ef438347e5c5e,55.86715397006443,-4.291958232382276,851,,/places/56752941498ef438347e5c5e,35 Old Dumbarton Rd,Glasgow,55.865683,-4.305367,066c99293af108ece27d9b0436c30cc4,11
56aa371ce4b08b9a8d57356c,Beer Bar,Beer Bar,Beer Bars,https://ss3.4sqi.net/img/categories_v2/nightlife/pub_,.png,4e1c4c481fc714dc5c3143ed,55.86824046184012,-4.291929571540907,884,glasgowbar@brewdog.com,/places/4e1c4c481fc714dc5c3143ed,1397 Argyle St,Glasgow,55.865683,-4.305367,066c99293af108ece27d9b0436c30cc4,11
4d4b7105d754a06374d81259,Restaurant,Restaurant,Restaurants,https://ss3.4sqi.net/img/categories_v2/food/default_,.png,4cba0d48adcd5481c4bc20a2,55.87086574569789,-4.311403894556569,688,info@roastitbubblyjocks.co.uk,/places/4cba0d48adcd5481c4bc20a2,450 Dumbarton Rd,Glasgow,55.865683,-4.305367,066c99293af108ece27d9b0436c30cc4,11
4bf58dd8d48988d16d941735,Café,Café,Cafés,https://ss3.4sqi.net/img/categories_v2/food/cafe_,.png,4c4959a81b430f474b7d69c3,55.8729713373584,-4.3020388946090975,836,,/places/4c4959a81b430f474b7d69c3,70 Hyndland St,Glasgow,55.865683,-4.305367,066c99293af108ece27d9b0436c30cc4,11
4bf58dd8d48988d113941735,Korean Restaurant,Korean,Korean Restaurants,https://ss3.4sqi.net/img/categories_v2/food/korean_,.png,5635275a498e569169b27825,55.871878282127604,-4.298323729400727,816,,/places/5635275a498e569169b27825,14 Chancellor St,Glasgow,55.865683,-4.305367,066c99293af108ece27d9b0436c30cc4,11
4bf58dd8d48988d172941735,Post Office,Post Office,Post Offices,https://ss3.4sqi.net/img/categories_v2/building/postoffice_,.png,4d7258b6ff6ba35d8bbb6c8a,55.87064608576911,-4.308802589650918,591,,/places/4d7258b6ff6ba35d8bbb6c8a,384 Dumbarton Rd,Glasgow,55.865683,-4.305367,066c99293af108ece27d9b0436c30cc4,11
4bf58dd8d48988d110941735,Italian Restaurant,Italian,Italian Restaurants,https://ss3.4sqi.net/img/categories_v2/food/italian_,.png,57f54b2d498e574bd31426ea,55.86783356540652,-4.291677464009917,886,,/places/57f54b2d498e574bd31426ea,,,55.865683,-4.305367,066c99293af108ece27d9b0436c30cc4,11
4bf58dd8d48988d10f941735,Indian Restaurant,Indian,Indian Restaurants,https://ss3.4sqi.net/img/categories_v2/food/indian_,.png,4b7b007cf964a5205b4b2fe3,55.86746,-4.291166,907,info@motherindiascafeglasgow.co.uk,/places/4b7b007cf964a5205b4b2fe3,1355 Argyle St,Glasgow,55.865683,-4.305367,066c99293af108ece27d9b0436c30cc4,11
4bf58dd8d48988d10f951735,Pharmacy,Pharmacy,Pharmacies,https://ss3.4sqi.net/img/categories_v2/shops/pharmacy_,.png,4df0cd3445ddbf3897d39112,55.870946802887524,-4.3035532497548274,595,,/places/4df0cd3445ddbf3897d39112,252-254 Dumbarton Rd,Partick,55.865683,-4.305367,066c99293af108ece27d9b0436c30cc4,11
4bf58dd8d48988d118951735,Grocery Store,Grocery Store,Grocery Stores,https://ss3.4sqi.net/img/categories_v2/shops/food_grocery_,.png,4d0671f328926ea842a075c2,55.86308109318556,-4.3121053838170225,510,,/places/4d0671f328926ea842a075c2,786-792 Govan Rd,Glasgow,55.865683,-4.305367,066c99293af108ece27d9b0436c30cc4,11
4bf58dd8d48988d16a941735,Bakery,Bakery,Bakeries,https://ss3.4sqi.net/img/categories_v2/food/bakery_,.png,4b8d2bb7f964a52068eb32e3,55.86322548632458,-4.312296499999851,511,,/places/4b8d2bb7f964a52068eb32e3,Govan Road,Glasgow,55.865683,-4.305367,066c99293af108ece27d9b0436c30cc4,11
4bf58dd8d48988d1c5941735,Sandwich Spot,Sandwich Spot,Sandwich Spots,https://ss3.4sqi.net/img/categories_v2/food/deli_,.png,4b8d2bb7f964a52068eb32e3,55.86322548632458,-4.312296499999851,511,,/places/4b8d2bb7f964a52068eb32e3,Govan Road,Glasgow,55.865683,-4.305367,066c99293af108ece27d9b0436c30cc4,11
4bf58dd8d48988d1e0931735,Coffee Shop,Coffee Shop,Coffee Shops,https://ss3.4sqi.net/img/categories_v2/food/coffeeshop_,.png,54c61ff3498ec3e20f6a64b2,55.87055866140964,-4.3167584441222715,893,,/places/54c61ff3498ec3e20f6a64b2,579 Dumbarton Rd,Glasgow,55.865683,-4.305367,066c99293af108ece27d9b0436c30cc4,11
4bf58dd8d48988d143941735,Breakfast Spot,Breakfast,Breakfast Spots,https://ss3.4sqi.net/img/categories_v2/food/breakfast_,.png,54c61ff3498ec3e20f6a64b2,55.87055866140964,-4.3167584441222715,893,,/places/54c61ff3498ec3e20f6a64b2,579 Dumbarton Rd,Glasgow,55.865683,-4.305367,066c99293af108ece27d9b0436c30cc4,11
4bf58dd8d48988d132941735,Church,Church,Churches,https://ss3.4sqi.net/img/categories_v2/building/religious_church_,.png,4f748062e4b02f4e52b60f9b,55.863423298293014,-4.312898097476327,532,,/places/4f748062e4b02f4e52b60f9b,,,55.865683,-4.305367,066c99293af108ece27d9b0436c30cc4,11
4bf58dd8d48988d1ca941735,Pizzeria,Pizza,Pizzerias,https://ss3.4sqi.net/img/categories_v2/food/pizza_,.png,59d12b1befa82a766c5f27ec,55.87055827638393,-4.315846852053346,848,,/places/59d12b1befa82a766c5f27ec,561 Dumbarton Rd,Glasgow,55.865683,-4.305367,066c99293af108ece27d9b0436c30cc4,11
4bf58dd8d48988d16d941735,Café,Café,Cafés,https://ss3.4sqi.net/img/categories_v2/food/cafe_,.png,4b8671d0f964a520758a31e3,55.87196512241172,-4.29746903256368,854,,/places/4b8671d0f964a520758a31e3,87 Byres Rd,Glasgow,55.865683,-4.305367,066c99293af108ece27d9b0436c30cc4,11
4edd64a0c7ddd24ca188df1a,Fish and Chips Shop,Fish and Chips Shop,Fish and Chips Shops,https://ss3.4sqi.net/img/categories_v2/food/fishandchips_,.png,4b8671d0f964a520758a31e3,55.87196512241172,-4.29746903256368,854,,/places/4b8671d0f964a520758a31e3,87 Byres Rd,Glasgow,55.865683,-4.305367,066c99293af108ece27d9b0436c30cc4,11
4bf58dd8d48988d1c1941735,Mexican Restaurant,Mexican,Mexican Restaurants,https://ss3.4sqi.net/img/categories_v2/food/mexican_,.png,4b82eb41f964a52024ed30e3,55.87072777983167,-4.317259878590239,929,info@bibiscantina.com,/places/4b82eb41f964a52024ed30e3,599 Dumbarton Road,Glasgow,55.865683,-4.305367,066c99293af108ece27d9b0436c30cc4,11
4bf58dd8d48988d1e2931735,Art Gallery,Art Gallery,Art Galleries,https://ss3.4sqi.net/img/categories_v2/arts_entertainment/artgallery_,.png,4ba647c4f964a520f04139e3,55.86858827697662,-4.290644695944072,973,museums@glasgowlife.org.uk,/places/4ba647c4f964a520f04139e3,Argyle St,Glasgow,55.865683,-4.305367,066c99293af108ece27d9b0436c30cc4,11
4bf58dd8d48988d181941735,Museum,Museum,Museums,https://ss3.4sqi.net/img/categories_v2/arts_entertainment/museum_,.png,4ba647c4f964a520f04139e3,55.86858827697662,-4.290644695944072,973,museums@glasgowlife.org.uk,/places/4ba647c4f964a520f04139e3,Argyle St,Glasgow,55.865683,-4.305367,066c99293af108ece27d9b0436c30cc4,11
4bf58dd8d48988d11b941735,Pub,Pub,Pubs,https://ss3.4sqi.net/img/categories_v2/nightlife/pub_,.png,4d94c74fb550a0939f928e87,55.870723379323444,-4.305614677418969,560,,/places/4d94c74fb550a0939f928e87,Dumbarton Rd,Partick,55.865683,-4.305367,066c99293af108ece27d9b0436c30cc4,11
4bf58dd8d48988d10f941735,Indian Restaurant,Indian,Indian Restaurants,https://ss3.4sqi.net/img/categories_v2/food/indian_,.png,4b71383ef964a520023d2de3,55.86735485428126,-4.292679114035327,812,chef_sures10@yahoo.co.in,/places/4b71383ef964a520023d2de3,76 Old Dumbarton Road,Glasgow,55.865683,-4.305367,066c99293af108ece27d9b0436c30cc4,11
4bf58dd8d48988d145941735,Chinese Restaurant,Chinese,Chinese Restaurants,https://ss3.4sqi.net/img/categories_v2/food/asian_,.png,4fa99500e4b0c8ba1f3ab10a,55.87021537362219,-4.308964348423353,551,,/places/4fa99500e4b0c8ba1f3ab10a,Merkland street,,55.865683,-4.305367,066c99293af108ece27d9b0436c30cc4,11
4bf58dd8d48988d16d941735,Café,Café,Cafés,https://ss3.4sqi.net/img/categories_v2/food/cafe_,.png,4bba108998c7ef3b62a33202,55.86738431603528,-4.291242867525522,900,,/places/4bba108998c7ef3b62a33202,,Glasgow,55.865683,-4.305367,066c99293af108ece27d9b0436c30cc4,11
4bf58dd8d48988d1c5941735,Sandwich Spot,Sandwich Spot,Sandwich Spots,https://ss3.4sqi.net/img/categories_v2/food/deli_,.png,50868fdce4b0fedcb3c523e5,55.86656016973019,-4.289764316423008,977,,/places/50868fdce4b0fedcb3c523e5,1299 Argyle St,Glasgow,55.865683,-4.305367,066c99293af108ece27d9b0436c30cc4,11
4bf58dd8d48988d1e0931735,Coffee Shop,Coffee Shop,Coffee Shops,https://ss3.4sqi.net/img/categories_v2/food/coffeeshop_,.png,50868fdce4b0fedcb3c523e5,55.86656016973019,-4.289764316423008,977,,/places/50868fdce4b0fedcb3c523e5,1299 Argyle St,Glasgow,55.865683,-4.305367,066c99293af108ece27d9b0436c30cc4,11
4bf58dd8d48988d116941735,Bar,Bar,Bars,https://ss3.4sqi.net/img/categories_v2/nightlife/pub_,.png,4d135e2f37f1236a1cc2801b,55.87085540061871,-4.302688350854819,598,,/places/4d135e2f37f1236a1cc2801b,232 Dumbarton Rd.,Glasgow,55.865683,-4.305367,066c99293af108ece27d9b0436c30cc4,11
4bf58dd8d48988d145941735,Chinese Restaurant,Chinese,Chinese Restaurants,https://ss3.4sqi.net/img/categories_v2/food/asian_,.png,4c546f8372cf0f47b68e8fd4,55.870784410571446,-4.300932884216309,630,,/places/4c546f8372cf0f47b68e8fd4,173 Dumbarton Rd,Glasgow,55.865683,-4.305367,066c99293af108ece27d9b0436c30cc4,11
4bf58dd8d48988d132941735,Church,Church,Churches,https://ss3.4sqi.net/img/categories_v2/building/religious_church_,.png,4d85e42c9324236adc05d80e,55.848159676088876,-4.198591442101653,194,,/places/4d85e42c9324236adc05d80e,,Glasgow,55.846524,-4.197475,0a106cbc148d5a0c2535b51c1dbe3b4d,6
4bf58dd8d48988d11b941735,Pub,Pub,Pubs,https://ss3.4sqi.net/img/categories_v2/nightlife/pub_,.png,53ac72a4498e9f7cea634c03,55.8480066215422,-4.202228790833143,339,,/places/53ac72a4498e9f7cea634c03,London Rd,Glasgow,55.846524,-4.197475,0a106cbc148d5a0c2535b51c1dbe3b4d,6
4d4b7105d754a06374d81259,Restaurant,Restaurant,Restaurants,https://ss3.4sqi.net/img/categories_v2/food/default_,.png,53ac72a4498e9f7cea634c03,55.8480066215422,-4.202228790833143,339,,/places/53ac72a4498e9f7cea634c03,London Rd,Glasgow,55.846524,-4.197475,0a106cbc148d5a0c2535b51c1dbe3b4d,6
4bf58dd8d48988d188941735,Soccer Stadium,Soccer,Soccer Stadiums,https://ss3.4sqi.net/img/categories_v2/arts_entertainment/stadium_soccer_,.png,4b11505bf964a520237a23e3,55.849902,-4.205619,631,visitorexperience@celticfc.co.uk,/places/4b11505bf964a520237a23e3,18 Kerrydale St,Parkhead,55.846524,-4.197475,0a106cbc148d5a0c2535b51c1dbe3b4d,6
4bf58dd8d48988d1e1941735,Basketball Court,Basketball Court,Basketball Courts,https://ss3.4sqi.net/img/categories_v2/parks_outdoors/basketballcourt_,.png,5096adcee4b0e34d63b58de2,55.84620703503959,-4.207315656123102,614,,/places/5096adcee4b0e34d63b58de2,1000 London Road,Glasgow,55.846524,-4.197475,0a106cbc148d5a0c2535b51c1dbe3b4d,6
4f2a25ac4b909258e854f55f,Neighborhood,Neighborhood,Neighborhoods,https://ss3.4sqi.net/img/categories_v2/parks_outdoors/neighborhood_,.png,5314f72de4b0e72a36e185af,55.84982963703771,-4.199795877580318,394,,/places/5314f72de4b0e72a36e185af,,,55.846524,-4.197475,0a106cbc148d5a0c2535b51c1dbe3b4d,6
4bf58dd8d48988d1e0931735,Coffee Shop,Coffee Shop,Coffee Shops,https://ss3.4sqi.net/img/categories_v2/food/coffeeshop_,.png,4c01274bcf3aa593b284ccb0,55.84241286936234,-4.2024150170848396,551,,/places/4c01274bcf3aa593b284ccb0,,Cambuslang,55.846524,-4.197475,0a106cbc148d5a0c2535b51c1dbe3b4d,6
4bf58dd8d48988d184941735,Stadium,Stadium,Stadiums,https://ss3.4sqi.net/img/categories_v2/arts_entertainment/stadium_,.png,4f216793e4b03871f8ff9f74,55.84687244493583,-4.207378188378637,619,,/places/4f216793e4b03871f8ff9f74,Nuneaton St.,Glasgow,55.846524,-4.197475,0a106cbc148d5a0c2535b51c1dbe3b4d,6
63be6904847c3692a84b9b25,Ticket Seller,Ticket Seller,Ticket Sellers,https://ss3.4sqi.net/img/categories_v2/arts_entertainment/default_,.png,4d3eaf6544f5a093e0abdfbb,55.84872389446182,-4.208168053596313,710,,/places/4d3eaf6544f5a093e0abdfbb,Kerrydale Street,Glasgow,55.846524,-4.197475,0a106cbc148d5a0c2535b51c1dbe3b4d,6
4bf58dd8d48988d118951735,Grocery Store,Grocery Store,Grocery Stores,https://ss3.4sqi.net/img/categories_v2/shops/food_grocery_,.png,4d55825ea05c37042ab7b987,55.851303780292156,-4.195146458237069,550,,/places/4d55825ea05c37042ab7b987,,,55.846524,-4.197475,0a106cbc148d5a0c2535b51c1dbe3b4d,6
52f2ab2ebcbc57f1066b8b46,Supermarket,Supermarket,Supermarkets,https://ss3.4sqi.net/img/categories_v2/shops/food_grocery_,.png,4b8011e3f964a5206c4f30e3,55.8540033,-4.1996639,842,,/places/4b8011e3f964a5206c4f30e3,1221 Gallowgate,Glasgow,55.846524,-4.197475,0a106cbc148d5a0c2535b51c1dbe3b4d,6
4bf58dd8d48988d11b941735,Pub,Pub,Pubs,https://ss3.4sqi.net/img/categories_v2/nightlife/pub_,.png,4ea4070a6c25b62f3e0a784d,55.85137611221898,-4.194798383050255,564,,/places/4ea4070a6c25b62f3e0a784d,,,55.846524,-4.197475,0a106cbc148d5a0c2535b51c1dbe3b4d,6
4bf58dd8d48988d1e0931735,Coffee Shop,Coffee Shop,Coffee Shops,https://ss3.4sqi.net/img/categories_v2/food/coffeeshop_,.png,4d4c3b6d7aa6a35dfdf7d470,55.85351471387366,-4.199926944469027,791,43032070@costacoffee.co.uk,/places/4d4c3b6d7aa6a35dfdf7d470,1221 Gallowgate,Glasgow,55.846524,-4.197475,0a106cbc148d5a0c2535b51c1dbe3b4d,6
4bf58dd8d48988d17f941735,Movie Theater,Movie Theater,Movie Theaters,https://ss3.4sqi.net/img/categories_v2/arts_entertainment/movietheater_,.png,4b50d31df964a520ce3327e3,55.852862608484536,-4.20120492304615,741,,/places/4b50d31df964a520ce3327e3,Forge Shopping Centre,Glasgow,55.846524,-4.197475,0a106cbc148d5a0c2535b51c1dbe3b4d,6
52e81612bcbc57f1066b7a23,Forest,Forest,Forests,https://ss3.4sqi.net/img/categories_v2/parks_outdoors/default_,.png,55fecc79498e34fa25353061,55.84119827391088,-4.2015391048547395,643,,/places/55fecc79498e34fa25353061,,,55.846524,-4.197475,0a106cbc148d5a0c2535b51c1dbe3b4d,6
4bf58dd8d48988d196941735,Hospital,Hospital,Hospitals,https://ss3.4sqi.net/img/categories_v2/building/medical_,.png,4ba353a0f964a520573538e3,55.85212748138644,-4.194472357144184,650,,/places/4ba353a0f964a520573538e3,,,55.846524,-4.197475,0a106cbc148d5a0c2535b51c1dbe3b4d,6
4bf58dd8d48988d1c5941735,Sandwich Spot,Sandwich Spot,Sandwich Spots,https://ss3.4sqi.net/img/categories_v2/food/deli_,.png,517fe0d4e4b0d7e32be5e0ef,55.85340310684125,-4.199935472986311,779,,/places/517fe0d4e4b0d7e32be5e0ef,Forge Shopping Centre,Glasgow,55.846524,-4.197475,0a106cbc148d5a0c2535b51c1dbe3b4d,6
4bf58dd8d48988d16e941735,Fast Food Restaurant,Fast Food,Fast Food Restaurants,https://ss3.4sqi.net/img/categories_v2/food/fastfood_,.png,517fe0d4e4b0d7e32be5e0ef,55.85340310684125,-4.199935472986311,779,,/places/517fe0d4e4b0d7e32be5e0ef,Forge Shopping Centre,Glasgow,55.846524,-4.197475,0a106cbc148d5a0c2535b51c1dbe3b4d,6
50327c8591d4c4b30a586d5d,Brewery,Brewery,Breweries,https://ss3.4sqi.net/img/categories_v2/food/brewery_,.png,4caadc5e14c337043686e53b,55.8423048879591,-4.189422189599243,687,,/places/4caadc5e14c337043686e53b,1700 London Rd.,Glasgow,55.846524,-4.197475,0a106cbc148d5a0c2535b51c1dbe3b4d,6
4bf58dd8d48988d11d941735,Sports Bar,Sports Bar,Sports Bars,https://ss3.4sqi.net/img/categories_v2/nightlife/sportsbar_,.png,648483902b9f1c28794f5a5c,55.84971,-4.20701,692,,/places/648483902b9f1c28794f5a5c,,Glasgow,55.846524,-4.197475,0a106cbc148d5a0c2535b51c1dbe3b4d,6
4bf58dd8d48988d163941735,Park,Park,Parks,https://ss3.4sqi.net/img/categories_v2/parks_outdoors/park_,.png,59da0d82446ea63601fa9911,55.840474754612146,-4.200362501568991,695,,/places/59da0d82446ea63601fa9911,,Glasgow,55.846524,-4.197475,0a106cbc148d5a0c2535b51c1dbe3b4d,6
4bf58dd8d48988d1e7941735,Playground,Playground,Playgrounds,https://ss3.4sqi.net/img/categories_v2/parks_outdoors/playground_,.png,59da0d82446ea63601fa9911,55.840474754612146,-4.200362501568991,695,,/places/59da0d82446ea63601fa9911,,Glasgow,55.846524,-4.197475,0a106cbc148d5a0c2535b51c1dbe3b4d,6
4bf58dd8d48988d1f2941735,Sporting Goods Retail,Sporting Goods Retail,Sporting Goods Retail,https://ss3.4sqi.net/img/categories_v2/shops/sports_outdoors_,.png,50d5a60ee4b0cc0bc5a15761,55.848807069119914,-4.207894062043646,697,,/places/50d5a60ee4b0cc0bc5a15761,18 Kerrydale St,Glasgow,55.846524,-4.197475,0a106cbc148d5a0c2535b51c1dbe3b4d,6
4e0e22f5a56208c4ea9a85a0,Distillery,Distillery,Distilleries,https://ss3.4sqi.net/img/categories_v2/food/brewery_,.png,1e668e9863e845985514fa7b,55.841917,-4.189761,702,,/places/1e668e9863e845985514fa7b,1700 London Rd,Glasgow,55.846524,-4.197475,0a106cbc148d5a0c2535b51c1dbe3b4d,6
4bf58dd8d48988d16d941735,Café,Café,Cafés,https://ss3.4sqi.net/img/categories_v2/food/cafe_,.png,4e68afe7b0fb8e94c7e2f312,55.8528183834368,-4.19856803302999,702,,/places/4e68afe7b0fb8e94c7e2f312,The Forge Shopping Centre,Glasgow,55.846524,-4.197475,0a106cbc148d5a0c2535b51c1dbe3b4d,6
52dea92d3cf9994f4e043dbb,Discount Store,Discount Store,Discount Stores,https://ss3.4sqi.net/img/categories_v2/shops/discountstore_,.png,4fe31eb7e4b0a72b2e13bda0,55.8528912677437,-4.19808290674586,708,,/places/4fe31eb7e4b0a72b2e13bda0,45B The Forge Shopping Centre,Glasgow,55.846524,-4.197475,0a106cbc148d5a0c2535b51c1dbe3b4d,6
4bf58dd8d48988d103951735,Clothing Store,Apparel,Clothing Stores,https://ss3.4sqi.net/img/categories_v2/shops/apparel_,.png,4e04ac26149509caec727a28,55.853733914506705,-4.199767673263523,813,,/places/4e04ac26149509caec727a28,"Unit 21 Forge Shopping Centre, 1221 Gallowgate, Parkhead",Parkhead,55.846524,-4.197475,0a106cbc148d5a0c2535b51c1dbe3b4d,6
4bf58dd8d48988d10f951735,Pharmacy,Pharmacy,Pharmacies,https://ss3.4sqi.net/img/categories_v2/shops/pharmacy_,.png,4e7c9556d4c01609aadb7bc4,55.85281272494313,-4.199825882794444,714,,/places/4e7c9556d4c01609aadb7bc4,Parkhead Forge,Glasgow,55.846524,-4.197475,0a106cbc148d5a0c2535b51c1dbe3b4d,6
4bf58dd8d48988d113941735,Korean Restaurant,Korean,Korean Restaurants,https://ss3.4sqi.net/img/categories_v2/food/korean_,.png,54f407b3498e59d21290e8e7,55.85320860179928,-4.199649612916202,755,,/places/54f407b3498e59d21290e8e7,Market Village,,55.846524,-4.197475,0a106cbc148d5a0c2535b51c1dbe3b4d,6
4bf58dd8d48988d1fd941735,Shopping Mall,Mall,Shopping Malls,https://ss3.4sqi.net/img/categories_v2/shops/mall_,.png,4c25deafa852c928d493e56c,55.853858411769274,-4.195606208729379,823,,/places/4c25deafa852c928d493e56c,,Glasgow,55.846524,-4.197475,0a106cbc148d5a0c2535b51c1dbe3b4d,6
4f2a25ac4b909258e854f55f,Neighborhood,Neighborhood,Neighborhoods,https://ss3.4sqi.net/img/categories_v2/parks_outdoors/neighborhood_,.png,5314c244e4b0d805d37bb243,55.84269030877662,-4.2080055648126,783,,/places/5314c244e4b0d805d37bb243,,Glasgow,55.846524,-4.197475,0a106cbc148d5a0c2535b51c1dbe3b4d,6
4bf58dd8d48988d145941735,Chinese Restaurant,Chinese,Chinese Restaurants,https://ss3.4sqi.net/img/categories_v2/food/asian_,.png,510fea3fe4b04cfd4113597d,55.853420196306146,-4.200317859649658,786,,/places/510fea3fe4b04cfd4113597d,The Forge Shopping Centre,Glasgow,55.846524,-4.197475,0a106cbc148d5a0c2535b51c1dbe3b4d,6
4e0e22f5a56208c4ea9a85a0,Distillery,Distillery,Distilleries,https://ss3.4sqi.net/img/categories_v2/food/brewery_,.png,2167cfd53bd04ba183a5bf91,55.8399422165169,-4.1920843142284525,805,,/places/2167cfd53bd04ba183a5bf91,1780 London Rd,Glasgow,55.846524,-4.197475,0a106cbc148d5a0c2535b51c1dbe3b4d,6
4bf58dd8d48988d130941735,Structure,Structure,Structures,https://ss3.4sqi.net/img/categories_v2/building/default_,.png,4c84b6f92f1c236aea534e43,55.8447194059209,-4.18490574984526,809,,/places/4c84b6f92f1c236aea534e43,,,55.846524,-4.197475,0a106cbc148d5a0c2535b51c1dbe3b4d,6
4bf58dd8d48988d1e7941735,Playground,Playground,Playgrounds,https://ss3.4sqi.net/img/categories_v2/parks_outdoors/playground_,.png,50700bdce4b0c48e394d0787,55.85359503214093,-4.1937424647387855,819,,/places/50700bdce4b0c48e394d0787,1201 Duke Street,Glasgow,55.846524,-4.197475,0a106cbc148d5a0c2535b51c1dbe3b4d,6
4bf58dd8d48988d1fd941735,Shopping Mall,Mall,Shopping Malls,https://ss3.4sqi.net/img/categories_v2/shops/mall_,.png,4b8e9615f964a5205a2a33e3,55.853483696392324,-4.200165408650677,791,vince.lochrie@forgeshoppingcentre.co.uk,/places/4b8e9615f964a5205a2a33e3,1221 Gallowgate,Glasgow,55.846524,-4.197475,0a106cbc148d5a0c2535b51c1dbe3b4d,6
4e0e22f5a56208c4ea9a85a0,Distillery,Distillery,Distilleries,https://ss3.4sqi.net/img/categories_v2/food/brewery_,.png,af25b91a1afd4ce9b985b17f,55.839935075714486,-4.191278877905051,827,,/places/af25b91a1afd4ce9b985b17f,1780 London Rd,Glasgow,55.846524,-4.197475,0a106cbc148d5a0c2535b51c1dbe3b4d,6
4bf58dd8d48988d15c941735,Cemetery,Cemetery,Cemeteries,https://ss3.4sqi.net/img/categories_v2/parks_outdoors/cemetery_,.png,4f0443579911be1fbd34ee0f,55.851975649343615,-4.2074961846398065,870,,/places/4f0443579911be1fbd34ee0f,,Glasgow,55.846524,-4.197475,0a106cbc148d5a0c2535b51c1dbe3b4d,6
4bf58dd8d48988d103951735,Clothing Store,Apparel,Clothing Stores,https://ss3.4sqi.net/img/categories_v2/shops/apparel_,.png,4e37da0f6284fcf7399f46f3,55.854311475297216,-4.199749231338501,876,,/places/4e37da0f6284fcf7399f46f3,Parkhead Forge Shopping Centre,Glasgow,55.846524,-4.197475,0a106cbc148d5a0c2535b51c1dbe3b4d,6
4bf58dd8d48988d1f5941735,Gourmet Store,Gourmet,Gourmet Stores,https://ss3.4sqi.net/img/categories_v2/shops/food_gourmet_,.png,b684b4152da944eb89bf5d1d,55.854028951535994,-4.191653924873614,909,,/places/b684b4152da944eb89bf5d1d,315 Shettleston Rd,Glasgow,55.846524,-4.197475,0a106cbc148d5a0c2535b51c1dbe3b4d,6
4bf58dd8d48988d1f8941735,Furniture and Home Store,Furniture and Home Store,Furniture and Home Stores,https://ss3.4sqi.net/img/categories_v2/shops/furniture_,.png,344dd10b5acd4e617fe5f66d,55.854029,-4.191654,909,,/places/344dd10b5acd4e617fe5f66d,315 Shettleston Rd,Glasgow,55.846524,-4.197475,0a106cbc148d5a0c2535b51c1dbe3b4d,6
4bf58dd8d48988d1e5941735,Dog Park,Dog Park,Dog Parks,https://ss3.4sqi.net/img/categories_v2/parks_outdoors/dogrun_,.png,4cd3d54108f48cfa748ba285,55.85271650747325,-4.187199468218906,940,,/places/4cd3d54108f48cfa748ba285,401 westmuuir,Glasgow,55.846524,-4.197475,0a106cbc148d5a0c2535b51c1dbe3b4d,6
63be6904847c3692a84b9b20,Bingo Center,Bingo Center,Bingo Centers,https://ss3.4sqi.net/img/categories_v2/arts_entertainment/default_,.png,4ce97076d99f721e2e49b673,55.853399421555224,-4.206519479668192,949,,/places/4ce97076d99f721e2e49b673,,Glasgow,55.846524,-4.197475,0a106cbc148d5a0c2535b51c1dbe3b4d,6
4f2a210c4b9023bd5841ed28,Housing Development,Housing Development,Housing Developments,https://ss3.4sqi.net/img/categories_v2/building/housingdevelopment_,.png,51482f51e4b0ce4194dc182f,55.83897088879769,-4.204610575146316,950,,/places/51482f51e4b0ce4194dc182f,Springfield Road,Glasgow,55.846524,-4.197475,0a106cbc148d5a0c2535b51c1dbe3b4d,6
4bf58dd8d48988d16e941735,Fast Food Restaurant,Fast Food,Fast Food Restaurants,https://ss3.4sqi.net/img/categories_v2/food/fastfood_,.png,4c931e23d2e1a1431d47d026,55.85454874695182,-4.2038915079367865,977,,/places/4c931e23d2e1a1431d47d026,The Forge Shopping Centre,Glasgow,55.846524,-4.197475,0a106cbc148d5a0c2535b51c1dbe3b4d,6
5e8f501a03c7a9000c1e2e88,Used Car Dealership,Used Car Dealer,Used Car Dealerships,https://ss3.4sqi.net/img/categories_v2/shops/automotive_,.png,5c7d3478f6c04806a6b2aa4c,55.844082577585176,-4.176589904997255,32,,/places/5c7d3478f6c04806a6b2aa4c,1217 Tollcross Rd,Glasgow,55.84425,-4.176167,0cc8c09950e1435ee7782478ed292fef,6
4bf58dd8d48988d118951735,Grocery Store,Grocery Store,Grocery Stores,https://ss3.4sqi.net/img/categories_v2/shops/food_grocery_,.png,4e0f9323091acd6746d9d799,55.844086665303024,-4.173965049856447,138,,/places/4e0f9323091acd6746d9d799,997 Tollcross Road,Glasgow,55.84425,-4.176167,0cc8c09950e1435ee7782478ed292fef,6
4d954b0ea243a5684a65b473,Convenience Store,Convenience Store,Convenience Stores,https://ss3.4sqi.net/img/categories_v2/shops/conveniencestore_,.png,4e0f9323091acd6746d9d799,55.844086665303024,-4.173965049856447,138,,/places/4e0f9323091acd6746d9d799,997 Tollcross Road,Glasgow,55.84425,-4.176167,0cc8c09950e1435ee7782478ed292fef,6
52f2ab2ebcbc57f1066b8b46,Supermarket,Supermarket,Supermarkets,https://ss3.4sqi.net/img/categories_v2/shops/food_grocery_,.png,5cd156176bdee6002c2cc7bd,55.84365604512458,-4.179483383328725,217,customer.services@lidl.co.uk,/places/5cd156176bdee6002c2cc7bd,850 Tollcross Rd,Glasgow,55.84425,-4.176167,0cc8c09950e1435ee7782478ed292fef,6
4bf58dd8d48988d163941735,Park,Park,Parks,https://ss3.4sqi.net/img/categories_v2/parks_outdoors/park_,.png,4bf13d5717880f47740f2a37,55.84691408811518,-4.179612418522375,365,,/places/4bf13d5717880f47740f2a37,,,55.84425,-4.176167,0cc8c09950e1435ee7782478ed292fef,6
4bf58dd8d48988d177941735,Doctor's Office,Doctor's Office,Doctor's Offices,https://ss3.4sqi.net/img/categories_v2/building/medical_doctorsoffice_,.png,4c4947d09e3e2d7f3b768e48,55.844081692277264,-4.170959997722629,325,,/places/4c4947d09e3e2d7f3b768e48,1101 Tollcross Road,Glasgow,55.84425,-4.176167,0cc8c09950e1435ee7782478ed292fef,6
4bf58dd8d48988d15b941735,Farm,Farm,Farms,https://ss3.4sqi.net/img/categories_v2/parks_outdoors/farm_,.png,4f8021e7e4b0ef2097ccdb9b,55.847183766691785,-4.17583142130054,326,,/places/4f8021e7e4b0ef2097ccdb9b,,,55.84425,-4.176167,0cc8c09950e1435ee7782478ed292fef,6
4bf58dd8d48988d10f941735,Indian Restaurant,Indian,Indian Restaurants,https://ss3.4sqi.net/img/categories_v2/food/indian_,.png,4c55b21130f92d7f241693bc,55.843241613909036,-4.170019234328454,399,,/places/4c55b21130f92d7f241693bc,1123 Tollcross Rd,Glasgow,55.84425,-4.176167,0cc8c09950e1435ee7782478ed292fef,6
4bf58dd8d48988d130941735,Structure,Structure,Structures,https://ss3.4sqi.net/img/categories_v2/building/default_,.png,4c84b6f92f1c236aea534e43,55.8447194059209,-4.18490574984526,547,,/places/4c84b6f92f1c236aea534e43,,,55.84425,-4.176167,0cc8c09950e1435ee7782478ed292fef,6
4bf58dd8d48988d103951735,Clothing Store,Apparel,Clothing Stores,https://ss3.4sqi.net/img/categories_v2/shops/apparel_,.png,585c27138d8e995f735aed4b,55.83873420508489,-4.174300576522752,623,cs@matalanonline.co.uk,/places/585c27138d8e995f735aed4b,2121 London Rd,Glasgow,55.84425,-4.176167,0cc8c09950e1435ee7782478ed292fef,6
4bf58dd8d48988d1f8941735,Furniture and Home Store,Furniture and Home Store,Furniture and Home Stores,https://ss3.4sqi.net/img/categories_v2/shops/furniture_,.png,4f9bf434e4b04dce44a9f3b9,55.83821687529869,-4.173200565540852,695,,/places/4f9bf434e4b04dce44a9f3b9,2129 London Rd,Glasgow,55.84425,-4.176167,0cc8c09950e1435ee7782478ed292fef,6
4d4b7105d754a06378d81259,Retail,Retail,Retail,https://ss3.4sqi.net/img/categories_v2/shops/default_,.png,ec6a0fb7571ce0c41bb69403,55.83770087000401,-4.181411905892882,797,,/places/ec6a0fb7571ce0c41bb69403,41 Colliery Rd,Glasgow,55.84425,-4.176167,0cc8c09950e1435ee7782478ed292fef,6
4bf58dd8d48988d1f8941735,Furniture and Home Store,Furniture and Home Store,Furniture and Home Stores,https://ss3.4sqi.net/img/categories_v2/shops/furniture_,.png,4dc55b491f6ef43b8a12c711,55.83779410949328,-4.170423128605806,801,glasgow@dfs.co.uk,/places/4dc55b491f6ef43b8a12c711,"London Road, Furniture Park",Glasgow,55.84425,-4.176167,0cc8c09950e1435ee7782478ed292fef,6
50327c8591d4c4b30a586d5d,Brewery,Brewery,Breweries,https://ss3.4sqi.net/img/categories_v2/food/brewery_,.png,4caadc5e14c337043686e53b,55.8423048879591,-4.189422189599243,854,,/places/4caadc5e14c337043686e53b,1700 London Rd.,Glasgow,55.84425,-4.176167,0cc8c09950e1435ee7782478ed292fef,6
4e0e22f5a56208c4ea9a85a0,Distillery,Distillery,Distilleries,https://ss3.4sqi.net/img/categories_v2/food/brewery_,.png,1e668e9863e845985514fa7b,55.841917,-4.189761,886,,/places/1e668e9863e845985514fa7b,1700 London Rd,Glasgow,55.84425,-4.176167,0cc8c09950e1435ee7782478ed292fef,6
4bf58dd8d48988d16d941735,Café,Café,Cafés,https://ss3.4sqi.net/img/categories_v2/food/cafe_,.png,508d0631e4b0499bc742a921,55.85232755832324,-4.177002484679948,899,giovy@hotmail.co.uk,/places/508d0631e4b0499bc742a921,763 Shettleston Rd,Glasgow,55.84425,-4.176167,0cc8c09950e1435ee7782478ed292fef,6
4bf58dd8d48988d16e941735,Fast Food Restaurant,Fast Food,Fast Food Restaurants,https://ss3.4sqi.net/img/categories_v2/food/fastfood_,.png,4e524f75e4cdb70cc52b6078,55.83664034,-4.16947937,942,,/places/4e524f75e4cdb70cc52b6078,London Road,Glasgow,55.84425,-4.176167,0cc8c09950e1435ee7782478ed292fef,6
4d4ae6fc7a7b7dea34424761,Fried Chicken Joint,Fried Chicken,Fried Chicken Joints,https://ss3.4sqi.net/img/categories_v2/food/friedchicken_,.png,4e524f75e4cdb70cc52b6078,55.83664034,-4.16947937,942,,/places/4e524f75e4cdb70cc52b6078,London Road,Glasgow,55.84425,-4.176167,0cc8c09950e1435ee7782478ed292fef,6
4bf58dd8d48988d16e941735,Fast Food Restaurant,Fast Food,Fast Food Restaurants,https://ss3.4sqi.net/img/categories_v2/food/fastfood_,.png,4c9da4b6031337044d2c61d5,55.83624475360258,-4.168943618586565,997,,/places/4c9da4b6031337044d2c61d5,Westhorn Drive,Glasgow,55.84425,-4.176167,0cc8c09950e1435ee7782478ed292fef,6
4d4b7105d754a06378d81259,Retail,Retail,Retail,https://ss3.4sqi.net/img/categories_v2/shops/default_,.png,39854ceb871b4b992b78ad75,55.83539175767678,-4.174729529624268,988,,/places/39854ceb871b4b992b78ad75,"Clyde Workshops, Fullarton Rd",Glasgow,55.84425,-4.176167,0cc8c09950e1435ee7782478ed292fef,6
4bf58dd8d48988d16d941735,Café,Café,Cafés,https://ss3.4sqi.net/img/categories_v2/food/cafe_,.png,4db17f3ccda14b702a45f8c7,55.8457698135898,-4.2721428824055385,192,,/places/4db17f3ccda14b702a45f8c7,,Glasgow,55.845807,-4.275232,0e94d2ad012bff0cf23497963ff5fd77,1
4bf58dd8d48988d1c5941735,Sandwich Spot,Sandwich Spot,Sandwich Spots,https://ss3.4sqi.net/img/categories_v2/food/deli_,.png,4cc6bd4201fb236af8b7b8ba,55.84237348736374,-4.2753316374581685,381,,/places/4cc6bd4201fb236af8b7b8ba,38 Herriet Street,Glasgow,55.845807,-4.275232,0e94d2ad012bff0cf23497963ff5fd77,1
4bf58dd8d48988d16e941735,Fast Food Restaurant,Fast Food,Fast Food Restaurants,https://ss3.4sqi.net/img/categories_v2/food/fastfood_,.png,4cc6bd4201fb236af8b7b8ba,55.84237348736374,-4.2753316374581685,381,,/places/4cc6bd4201fb236af8b7b8ba,38 Herriet Street,Glasgow,55.845807,-4.275232,0e94d2ad012bff0cf23497963ff5fd77,1
4bf58dd8d48988d181941735,Museum,Museum,Museums,https://ss3.4sqi.net/img/categories_v2/arts_entertainment/museum_,.png,4c889b1297828cfaf1499daa,55.84973584425906,-4.273736532878135,446,museums@glasgowlife.org.uk,/places/4c889b1297828cfaf1499daa,225 Scotland St,Glasgow,55.845807,-4.275232,0e94d2ad012bff0cf23497963ff5fd77,1
4bf58dd8d48988d1f2931735,Performing Arts Venue,Performing Arts,Performing Arts Venues,https://ss3.4sqi.net/img/categories_v2/arts_entertainment/performingarts_,.png,4b5c50ccf964a520b72a29e3,55.841032877858645,-4.26744374437605,719,info@tramway.org,/places/4b5c50ccf964a520b72a29e3,25 Albert Drive,Glasgow,55.845807,-4.275232,0e94d2ad012bff0cf23497963ff5fd77,1
4bf58dd8d48988d137941735,Theater,Theater,Theaters,https://ss3.4sqi.net/img/categories_v2/arts_entertainment/performingarts_theater_,.png,4b5c50ccf964a520b72a29e3,55.841032877858645,-4.26744374437605,719,info@tramway.org,/places/4b5c50ccf964a520b72a29e3,25 Albert Drive,Glasgow,55.845807,-4.275232,0e94d2ad012bff0cf23497963ff5fd77,1
4bf58dd8d48988d1e2931735,Art Gallery,Art Gallery,Art Galleries,https://ss3.4sqi.net/img/categories_v2/arts_entertainment/artgallery_,.png,4b5c50ccf964a520b72a29e3,55.841032877858645,-4.26744374437605,719,info@tramway.org,/places/4b5c50ccf964a520b72a29e3,25 Albert Drive,Glasgow,55.845807,-4.275232,0e94d2ad012bff0cf23497963ff5fd77,1
63be6904847c3692a84b9bc4,Nursing Home,Nursing Home,Nursing Homes,https://ss3.4sqi.net/img/categories_v2/building/medical_,.png,fdd0018fe5ac42a5a7ed9f45,55.843032,-4.279486,406,,/places/fdd0018fe5ac42a5a7ed9f45,311 Albert Dr,Glasgow,55.845807,-4.275232,0e94d2ad012bff0cf23497963ff5fd77,1
4bf58dd8d48988d16d941735,Café,Café,Cafés,https://ss3.4sqi.net/img/categories_v2/food/cafe_,.png,4bc86b27af07a593fac8802d,55.838365051969824,-4.27446384572211,828,,/places/4bc86b27af07a593fac8802d,20 Kildrostan Street,Glasgow,55.845807,-4.275232,0e94d2ad012bff0cf23497963ff5fd77,1
4d4b7105d754a06374d81259,Restaurant,Restaurant,Restaurants,https://ss3.4sqi.net/img/categories_v2/food/default_,.png,4bc86b27af07a593fac8802d,55.838365051969824,-4.27446384572211,828,,/places/4bc86b27af07a593fac8802d,20 Kildrostan Street,Glasgow,55.845807,-4.275232,0e94d2ad012bff0cf23497963ff5fd77,1
4bf58dd8d48988d1e5931735,Music Venue,Music Venue,Music Venues,https://ss3.4sqi.net/img/categories_v2/arts_entertainment/musicvenue_,.png,4e1237f4b0fbfef99b98b87b,55.84976849203671,-4.281005904235021,568,,/places/4e1237f4b0fbfef99b98b87b,,Glasgow,55.845807,-4.275232,0e94d2ad012bff0cf23497963ff5fd77,1
4f2a25ac4b909258e854f55f,Neighborhood,Neighborhood,Neighborhoods,https://ss3.4sqi.net/img/categories_v2/parks_outdoors/neighborhood_,.png,50069968e4b0d41b58299e77,55.84652532736271,-4.284268791704292,569,,/places/50069968e4b0d41b58299e77,,,55.845807,-4.275232,0e94d2ad012bff0cf23497963ff5fd77,1
4cce455aebf7b749d5e191f5,Soccer Field,Soccer Field,Soccer Fields,https://ss3.4sqi.net/img/categories_v2/arts_entertainment/stadium_soccer_,.png,5390b506498e3f260b17a064,55.849790963805575,-4.269078018587653,585,,/places/5390b506498e3f260b17a064,33 Scotland Street,Glasgow,55.845807,-4.275232,0e94d2ad012bff0cf23497963ff5fd77,1
4bf58dd8d48988d1e7941735,Playground,Playground,Playgrounds,https://ss3.4sqi.net/img/categories_v2/parks_outdoors/playground_,.png,51549e3de4b0e9229c66f04a,55.84049108517305,-4.27548335664197,590,,/places/51549e3de4b0e9229c66f04a,Leslie Street,Glasgow,55.845807,-4.275232,0e94d2ad012bff0cf23497963ff5fd77,1
55a59bace4b013909087cb24,Ramen Restaurant,Ramen,Ramen Restaurants,https://ss3.4sqi.net/img/categories_v2/food/ramen_,.png,5e6e66f7fc840000080fbf71,55.850296,-4.281022,615,,/places/5e6e66f7fc840000080fbf71,1126 Argyle Street,Glasgow,55.845807,-4.275232,0e94d2ad012bff0cf23497963ff5fd77,1
5744ccdfe4b0c0459246b4b5,Indoor Play Area,Indoor Play Area,Indoor Play Areas,https://ss3.4sqi.net/img/categories_v2/parks_outdoors/playground_,.png,50f18089e4b067e9eb609739,55.85080157211861,-4.282738592355302,726,info@wonderworldsoftplay.co.uk,/places/50f18089e4b067e9eb609739,99 Middlesex Street,Glasgow,55.845807,-4.275232,0e94d2ad012bff0cf23497963ff5fd77,1
4bf58dd8d48988d1fd941735,Shopping Mall,Mall,Shopping Malls,https://ss3.4sqi.net/img/categories_v2/shops/mall_,.png,4b659aecf964a5201bf62ae3,55.852890236944674,-4.267330169677734,928,,/places/4b659aecf964a5201bf62ae3,201-211 Wallace St,Glasgow,55.845807,-4.275232,0e94d2ad012bff0cf23497963ff5fd77,1
4bf58dd8d48988d110941735,Italian Restaurant,Italian,Italian Restaurants,https://ss3.4sqi.net/img/categories_v2/food/italian_,.png,4bc852c592b376b00b22513a,55.85376948375199,-4.279147982597351,917,enquiries@la-fiorentina.com,/places/4bc852c592b376b00b22513a,2 Paisley Rd W,Glasgow,55.845807,-4.275232,0e94d2ad012bff0cf23497963ff5fd77,1
52e81612bcbc57f1066b79f4,Buffet,Buffet,Buffets,https://ss3.4sqi.net/img/categories_v2/food/default_,.png,5515b46c498edbb34c84b689,55.853512976373125,-4.272170255221232,877,,/places/5515b46c498edbb34c84b689,,,55.845807,-4.275232,0e94d2ad012bff0cf23497963ff5fd77,1
4bf58dd8d48988d112951735,Hardware Store,Hardware,Hardware Stores,https://ss3.4sqi.net/img/categories_v2/shops/hardware_,.png,4e574e7e1838c737f05b6d42,55.84967400711022,-4.266795783109067,679,,/places/4e574e7e1838c737f05b6d42,7 Scotland St.,Glasgow,55.845807,-4.275232,0e94d2ad012bff0cf23497963ff5fd77,1
4bf58dd8d48988d1f2941735,Sporting Goods Retail,Sporting Goods Retail,Sporting Goods Retail,https://ss3.4sqi.net/img/categories_v2/shops/sports_outdoors_,.png,4e574e7e1838c737f05b6d42,55.84967400711022,-4.266795783109067,679,,/places/4e574e7e1838c737f05b6d42,7 Scotland St.,Glasgow,55.845807,-4.275232,0e94d2ad012bff0cf23497963ff5fd77,1
52e81612bcbc57f1066b79e9,Roller Rink,Roller Rink,Roller Rinks,https://ss3.4sqi.net/img/categories_v2/arts_entertainment/default_,.png,557c20e9498ec5a5aca0686b,55.850673,-4.282327,698,,/places/557c20e9498ec5a5aca0686b,Middlesex Street,,55.845807,-4.275232,0e94d2ad012bff0cf23497963ff5fd77,1
52e81612bcbc57f1066b79e6,Laser Tag Center,Laser Tag,Laser Tag Centers,https://ss3.4sqi.net/img/categories_v2/arts_entertainment/default_,.png,56e1c4c8498ef45e2b39e37a,55.850837,-4.281953,698,,/places/56e1c4c8498ef45e2b39e37a,124 Portman Street,,55.845807,-4.275232,0e94d2ad012bff0cf23497963ff5fd77,1
52e81612bcbc57f1066b79eb,Mini Golf Course,Mini Golf,Mini Golf Courses,https://ss3.4sqi.net/img/categories_v2/parks_outdoors/golfcourse_,.png,5c1286791af852002cccc178,55.851031374579215,-4.281484278974151,699,,/places/5c1286791af852002cccc178,124 Portman Street,Glasgow,55.845807,-4.275232,0e94d2ad012bff0cf23497963ff5fd77,1
4bf58dd8d48988d16a941735,Bakery,Bakery,Bakeries,https://ss3.4sqi.net/img/categories_v2/food/bakery_,.png,4cc0298119ceb1f7ef6127cd,55.838252127024866,-4.274609475058332,840,,/places/4cc0298119ceb1f7ef6127cd,16 Kildrostan St,Glasgow,55.845807,-4.275232,0e94d2ad012bff0cf23497963ff5fd77,1
4bf58dd8d48988d1c5941735,Sandwich Spot,Sandwich Spot,Sandwich Spots,https://ss3.4sqi.net/img/categories_v2/food/deli_,.png,4cc0298119ceb1f7ef6127cd,55.838252127024866,-4.274609475058332,840,,/places/4cc0298119ceb1f7ef6127cd,16 Kildrostan St,Glasgow,55.845807,-4.275232,0e94d2ad012bff0cf23497963ff5fd77,1
4f4528bc4b90abdf24c9de85,Sports and Recreation,Sports and Recreation,Sports and Recreation,https://ss3.4sqi.net/img/categories_v2/shops/sports_outdoors_,.png,5548b42c498e8f785863b2ec,55.8510005756261,-4.282168300591217,721,,/places/5548b42c498e8f785863b2ec,Portman Street,Glasgow,55.845807,-4.275232,0e94d2ad012bff0cf23497963ff5fd77,1
4bf58dd8d48988d13b941735,Education,Education,Education,https://ss3.4sqi.net/img/categories_v2/building/school_,.png,2d7d09d8e1a0444dd205396c,55.85026819487559,-4.283773284861787,727,info@theglasgowschoolofmusic.co.uk,/places/2d7d09d8e1a0444dd205396c,542 Scotland St West,Glasgow,55.845807,-4.275232,0e94d2ad012bff0cf23497963ff5fd77,1
5744ccdde4b0c0459246b4a3,Scottish Restaurant,Scottish,Scottish Restaurants,https://ss3.4sqi.net/img/categories_v2/food/default_,.png,5dc6bd8aabd6c100082bb1b5,55.839211532405805,-4.275339538926037,732,,/places/5dc6bd8aabd6c100082bb1b5,142 Nithsdale Rd,Glasgow,55.845807,-4.275232,0e94d2ad012bff0cf23497963ff5fd77,1
4bf58dd8d48988d1f8941735,Furniture and Home Store,Furniture and Home Store,Furniture and Home Stores,https://ss3.4sqi.net/img/categories_v2/shops/furniture_,.png,4df375a3483bdb5e13742f7b,55.85234580127483,-4.277845701523033,744,,/places/4df375a3483bdb5e13742f7b,,Glasgow,55.845807,-4.275232,0e94d2ad012bff0cf23497963ff5fd77,1
4bf58dd8d48988d10f941735,Indian Restaurant,Indian,Indian Restaurants,https://ss3.4sqi.net/img/categories_v2/food/indian_,.png,4f0de049e4b01660dcf9bfa4,55.85241238717622,-4.277602478359299,748,,/places/4f0de049e4b01660dcf9bfa4,,Glasgow,55.845807,-4.275232,0e94d2ad012bff0cf23497963ff5fd77,1
52e81612bcbc57f1066b7a26,Recreation Center,Recreation Center,Recreation Centers,https://ss3.4sqi.net/img/categories_v2/shops/sports_outdoors_,.png,5e29429ce2a6120008a18576,55.85112313758664,-4.282643408156918,750,,/places/5e29429ce2a6120008a18576,"Unit 3, 89, Middlesex St",Glasgow,55.845807,-4.275232,0e94d2ad012bff0cf23497963ff5fd77,1
4bf58dd8d48988d1e0931735,Coffee Shop,Coffee Shop,Coffee Shops,https://ss3.4sqi.net/img/categories_v2/food/coffeeshop_,.png,5518402d498eeca2fd418a48,55.840840125035356,-4.266496628441293,775,,/places/5518402d498eeca2fd418a48,Albert Drive,Glasgow,55.845807,-4.275232,0e94d2ad012bff0cf23497963ff5fd77,1
4bf58dd8d48988d16d941735,Café,Café,Cafés,https://ss3.4sqi.net/img/categories_v2/food/cafe_,.png,54e5e440498e4ac03ebf30a5,55.83876314450417,-4.274959208874714,782,,/places/54e5e440498e4ac03ebf30a5,Nithsdale Rd.,,55.845807,-4.275232,0e94d2ad012bff0cf23497963ff5fd77,1
4bf58dd8d48988d17f941735,Movie Theater,Movie Theater,Movie Theaters,https://ss3.4sqi.net/img/categories_v2/arts_entertainment/movietheater_,.png,4b2400a8f964a520da5e24e3,55.854596,-4.2763286,979,,/places/4b2400a8f964a520da5e24e3,"Paisley Road, Glasgow Quay",Glasgow City,55.845807,-4.275232,0e94d2ad012bff0cf23497963ff5fd77,1
4bf58dd8d48988d116951735,Antique Store,Antiques,Antique Stores,https://ss3.4sqi.net/img/categories_v2/shops/antique_,.png,67f8fc7513cfe067cee03639,55.84909110501213,-4.286738634109497,805,,/places/67f8fc7513cfe067cee03639,Kinning Park Antique Centre,Glasgow,55.845807,-4.275232,0e94d2ad012bff0cf23497963ff5fd77,1
4f04af1f2fb6e1c99f3db0bb,Turkish Restaurant,Turkish,Turkish Restaurants,https://ss3.4sqi.net/img/categories_v2/food/turkish_,.png,4c812e6747cc224ba8af799f,55.853844,-4.279355,929,,/places/4c812e6747cc224ba8af799f,7 Paisley Road West,Glasgow,55.845807,-4.275232,0e94d2ad012bff0cf23497963ff5fd77,1
4bf58dd8d48988d1f2941735,Sporting Goods Retail,Sporting Goods Retail,Sporting Goods Retail,https://ss3.4sqi.net/img/categories_v2/shops/sports_outdoors_,.png,4c1e0e4463750f477d20b967,55.85256598408171,-4.280445411206414,818,,/places/4c1e0e4463750f477d20b967,30 Stanley St,Glasgow,55.845807,-4.275232,0e94d2ad012bff0cf23497963ff5fd77,1
4bf58dd8d48988d112951735,Hardware Store,Hardware,Hardware Stores,https://ss3.4sqi.net/img/categories_v2/shops/hardware_,.png,4cbebdf21c6c6dcbb8e5695e,55.8531949025329,-4.275680127305523,821,,/places/4cbebdf21c6c6dcbb8e5695e,Watt St,Glasgow,55.845807,-4.275232,0e94d2ad012bff0cf23497963ff5fd77,1
4bf58dd8d48988d1e4931735,Bowling Alley,Bowling Alley,Bowling Alleys,https://ss3.4sqi.net/img/categories_v2/arts_entertainment/bowling_,.png,4bdb267d2a3a0f4790a7adb6,55.8546776685718,-4.275094615068638,985,,/places/4bdb267d2a3a0f4790a7adb6,"Unit 2, Springfield Quay",Glasgow,55.845807,-4.275232,0e94d2ad012bff0cf23497963ff5fd77,1
4bf58dd8d48988d112951735,Hardware Store,Hardware,Hardware Stores,https://ss3.4sqi.net/img/categories_v2/shops/hardware_,.png,4c8ce5785e048cfa0ea4d0cd,55.85325601324252,-4.273658560537809,833,,/places/4c8ce5785e048cfa0ea4d0cd,10-12 Houston Pl,Glasgow,55.845807,-4.275232,0e94d2ad012bff0cf23497963ff5fd77,1
4d4b7105d754a06374d81259,Restaurant,Restaurant,Restaurants,https://ss3.4sqi.net/img/categories_v2/food/default_,.png,4db1c0f6f7b1bd003ae45ff8,55.844481,-4.262054,835,,/places/4db1c0f6f7b1bd003ae45ff8,,Glasgow,55.845807,-4.275232,0e94d2ad012bff0cf23497963ff5fd77,1
4bf58dd8d48988d1f9941735,Food and Beverage Retail,Food & Beverage,Food and Beverage Retail,https://ss3.4sqi.net/img/categories_v2/shops/foodanddrink_,.png,4cc43aee82388cfad4726d35,55.84283340238235,-4.262909182107231,836,,/places/4cc43aee82388cfad4726d35,326 Pollokshaws Road,Glasgow,55.845807,-4.275232,0e94d2ad012bff0cf23497963ff5fd77,1
4f2a25ac4b909258e854f55f,Neighborhood,Neighborhood,Neighborhoods,https://ss3.4sqi.net/img/categories_v2/parks_outdoors/neighborhood_,.png,4fe9bd5200391886123850e0,55.85233856797152,-4.28193063831827,837,,/places/4fe9bd5200391886123850e0,,Glasgow,55.845807,-4.275232,0e94d2ad012bff0cf23497963ff5fd77,1
4d4b7105d754a06378d81259,Retail,Retail,Retail,https://ss3.4sqi.net/img/categories_v2/shops/default_,.png,4db050e76e81a2637ed6e495,55.84443,-4.261961,841,,/places/4db050e76e81a2637ed6e495,,Glasgow,55.845807,-4.275232,0e94d2ad012bff0cf23497963ff5fd77,1
4bf58dd8d48988d1e0931735,Coffee Shop,Coffee Shop,Coffee Shops,https://ss3.4sqi.net/img/categories_v2/food/coffeeshop_,.png,50ae94bde4b034c5d70585f3,55.85456440209796,-4.276594519615173,976,,/places/50ae94bde4b034c5d70585f3,Springfield Quay,Glasgow,55.845807,-4.275232,0e94d2ad012bff0cf23497963ff5fd77,1
4bf58dd8d48988d118951735,Grocery Store,Grocery Store,Grocery Stores,https://ss3.4sqi.net/img/categories_v2/shops/food_grocery_,.png,4d063543e8d85941687a2fa6,55.85340163655928,-4.2778081404649235,859,,/places/4d063543e8d85941687a2fa6,455 Paisley Rd,Glasgow,55.845807,-4.275232,0e94d2ad012bff0cf23497963ff5fd77,1
4bf58dd8d48988d11b941735,Pub,Pub,Pubs,https://ss3.4sqi.net/img/categories_v2/nightlife/pub_,.png,4e9857142c5b827059d9be50,55.84349883691605,-4.262089522553327,859,,/places/4e9857142c5b827059d9be50,537-539 Eglinton St,Glasgow,55.845807,-4.275232,0e94d2ad012bff0cf23497963ff5fd77,1
4bf58dd8d48988d130941735,Structure,Structure,Structures,https://ss3.4sqi.net/img/categories_v2/building/default_,.png,4f228a3b7bebea45094bede7,55.851597619854466,-4.284480144406462,864,,/places/4f228a3b7bebea45094bede7,43 Middlesex Street,Glasgow,55.845807,-4.275232,0e94d2ad012bff0cf23497963ff5fd77,1
4bf58dd8d48988d163941735,Park,Park,Parks,https://ss3.4sqi.net/img/categories_v2/parks_outdoors/park_,.png,4dff3c31e4cdf7246077cb11,55.838446,-4.280103,872,,/places/4dff3c31e4cdf7246077cb11,Terregles Avenue,Glasgow,55.845807,-4.275232,0e94d2ad012bff0cf23497963ff5fd77,1
4bf58dd8d48988d1c9941735,Ice Cream Parlor,Ice Cream,Ice Cream Parlors,https://ss3.4sqi.net/img/categories_v2/food/icecream_,.png,515def9d067d9eac7a8b1be0,55.85369722,-4.27580595,877,,/places/515def9d067d9eac7a8b1be0,Paisley Road Glasgow Quay,Glasgow,55.845807,-4.275232,0e94d2ad012bff0cf23497963ff5fd77,1
4bf58dd8d48988d16e941735,Fast Food Restaurant,Fast Food,Fast Food Restaurants,https://ss3.4sqi.net/img/categories_v2/food/fastfood_,.png,4b90247ff964a520367833e3,55.839078089260845,-4.2666133606289,921,,/places/4b90247ff964a520367833e3,489 POLLOKSHAWS ROAD,Glasgow,55.845807,-4.275232,0e94d2ad012bff0cf23497963ff5fd77,1
4bf58dd8d48988d16e941735,Fast Food Restaurant,Fast Food,Fast Food Restaurants,https://ss3.4sqi.net/img/categories_v2/food/fastfood_,.png,4b7c4dd1f964a520068b2fe3,55.85427851858149,-4.273525239086051,947,,/places/4b7c4dd1f964a520068b2fe3,"Springfield Quay, Paisley Road West, Paisley Road West",Springfield Quay,55.845807,-4.275232,0e94d2ad012bff0cf23497963ff5fd77,1
4edd64a0c7ddd24ca188df1a,Fish and Chips Shop,Fish and Chips Shop,Fish and Chips Shops,https://ss3.4sqi.net/img/categories_v2/food/fishandchips_,.png,4c6ec1684d24b60c86a1d9d8,55.853415458352046,-4.280331455754418,903,,/places/4c6ec1684d24b60c86a1d9d8,39 Paisley Road West,Glasgow,55.845807,-4.275232,0e94d2ad012bff0cf23497963ff5fd77,1
4bf58dd8d48988d110941735,Italian Restaurant,Italian,Italian Restaurants,https://ss3.4sqi.net/img/categories_v2/food/italian_,.png,4b83f936f964a520191931e3,55.828457132132606,-4.283280678184985,76,,/places/4b83f936f964a520191931e3,85 Kilmarnock Rd,Glasgow,55.829057,-4.282675,101c6cd7749f373507e9444f5222b7f2,1
4bf58dd8d48988d1ca941735,Pizzeria,Pizza,Pizzerias,https://ss3.4sqi.net/img/categories_v2/food/pizza_,.png,4b83f936f964a520191931e3,55.828457132132606,-4.283280678184985,76,,/places/4b83f936f964a520191931e3,85 Kilmarnock Rd,Glasgow,55.829057,-4.282675,101c6cd7749f373507e9444f5222b7f2,1
4bf58dd8d48988d146941735,Deli,Deli,Delis,https://ss3.4sqi.net/img/categories_v2/food/deli_,.png,54a1633e498e3242ba8466d5,55.829803466796875,-4.280884742736816,139,,/places/54a1633e498e3242ba8466d5,Skirving Street,Glasgow,55.829057,-4.282675,101c6cd7749f373507e9444f5222b7f2,1
4bf58dd8d48988d16d941735,Café,Café,Cafés,https://ss3.4sqi.net/img/categories_v2/food/cafe_,.png,4eabdf0cb6347a596aa599db,55.82941173057322,-4.282371521939151,43,,/places/4eabdf0cb6347a596aa599db,35 Kilmarnock Road,Glasgow,55.829057,-4.282675,101c6cd7749f373507e9444f5222b7f2,1
4bf58dd8d48988d1e0931735,Coffee Shop,Coffee Shop,Coffee Shops,https://ss3.4sqi.net/img/categories_v2/food/coffeeshop_,.png,4eabdf0cb6347a596aa599db,55.82941173057322,-4.282371521939151,43,,/places/4eabdf0cb6347a596aa599db,35 Kilmarnock Road,Glasgow,55.829057,-4.282675,101c6cd7749f373507e9444f5222b7f2,1
52dea92d3cf9994f4e043dbb,Discount Store,Discount Store,Discount Stores,https://ss3.4sqi.net/img/categories_v2/shops/discountstore_,.png,4d8c9c6e788c5481fa190dfd,55.828821225827404,-4.283283948898315,46,,/places/4d8c9c6e788c5481fa190dfd,84-88 Kilmarnock Rd,Glasgow,55.829057,-4.282675,101c6cd7749f373507e9444f5222b7f2,1
4bf58dd8d48988d118951735,Grocery Store,Grocery Store,Grocery Stores,https://ss3.4sqi.net/img/categories_v2/shops/food_grocery_,.png,4ee0b703be7b7e4d12abbf14,55.82889671644712,-4.282477411956768,21,,/places/4ee0b703be7b7e4d12abbf14,62-70 Kilmarnock Rd,Glasgow,55.829057,-4.282675,101c6cd7749f373507e9444f5222b7f2,1
4bf58dd8d48988d16a941735,Bakery,Bakery,Bakeries,https://ss3.4sqi.net/img/categories_v2/food/bakery_,.png,4d872aff8de9721e0fb36751,55.829857690209536,-4.281846284866333,102,,/places/4d872aff8de9721e0fb36751,15 Kilmarnock Rd,Glasgow,55.829057,-4.282675,101c6cd7749f373507e9444f5222b7f2,1
4bf58dd8d48988d1c5941735,Sandwich Spot,Sandwich Spot,Sandwich Spots,https://ss3.4sqi.net/img/categories_v2/food/deli_,.png,4d872aff8de9721e0fb36751,55.829857690209536,-4.281846284866333,102,,/places/4d872aff8de9721e0fb36751,15 Kilmarnock Rd,Glasgow,55.829057,-4.282675,101c6cd7749f373507e9444f5222b7f2,1
4bf58dd8d48988d10f951735,Pharmacy,Pharmacy,Pharmacies,https://ss3.4sqi.net/img/categories_v2/shops/pharmacy_,.png,51e29d17498ea20cee07b7eb,55.828845329963926,-4.283326864242554,46,,/places/51e29d17498ea20cee07b7eb,80-82 Kilmarnock Rd,Shawlands,55.829057,-4.282675,101c6cd7749f373507e9444f5222b7f2,1
4bf58dd8d48988d1f9941735,Food and Beverage Retail,Food & Beverage,Food and Beverage Retail,https://ss3.4sqi.net/img/categories_v2/shops/foodanddrink_,.png,4b8d1de8f964a520cce832e3,55.827454,-4.2841516,200,enquiries@dnisi.co.uk,/places/4b8d1de8f964a520cce832e3,265 Kilmarnock Rd,Glasgow,55.829057,-4.282675,101c6cd7749f373507e9444f5222b7f2,1
4bf58dd8d48988d16d941735,Café,Café,Cafés,https://ss3.4sqi.net/img/categories_v2/food/cafe_,.png,4b8d1de8f964a520cce832e3,55.827454,-4.2841516,200,enquiries@dnisi.co.uk,/places/4b8d1de8f964a520cce832e3,265 Kilmarnock Rd,Glasgow,55.829057,-4.282675,101c6cd7749f373507e9444f5222b7f2,1
4bf58dd8d48988d1e0931735,Coffee Shop,Coffee Shop,Coffee Shops,https://ss3.4sqi.net/img/categories_v2/food/coffeeshop_,.png,4b5dad8df964a520606629e3,55.82983741392741,-4.280760364300667,147,,/places/4b5dad8df964a520606629e3,19 Skirving St,Shawlands,55.829057,-4.282675,101c6cd7749f373507e9444f5222b7f2,1
4bf58dd8d48988d1d3941735,Vegan and Vegetarian Restaurant,Vegan and Vegetarian Restaurant,Vegan and Vegetarian Restaurants,https://ss3.4sqi.net/img/categories_v2/food/vegetarian_,.png,588ddcc46d349d3000c56b41,55.829132,-4.2826457,8,,/places/588ddcc46d349d3000c56b41,,,55.829057,-4.282675,101c6cd7749f373507e9444f5222b7f2,1
4bf58dd8d48988d16d941735,Café,Café,Cafés,https://ss3.4sqi.net/img/categories_v2/food/cafe_,.png,56e55931498e9430413d1959,55.830899,-4.280327,251,,/places/56e55931498e9430413d1959,1082 Pollokshaws Rd.,Glasgow,55.829057,-4.282675,101c6cd7749f373507e9444f5222b7f2,1
4bf58dd8d48988d11b941735,Pub,Pub,Pubs,https://ss3.4sqi.net/img/categories_v2/nightlife/pub_,.png,4c066f06761ac9b6fce92074,55.830675118402304,-4.280856244199068,212,,/places/4c066f06761ac9b6fce92074,1110 Pollokshaws Road,Glasgow,55.829057,-4.282675,101c6cd7749f373507e9444f5222b7f2,1
4bf58dd8d48988d118951735,Grocery Store,Grocery Store,Grocery Stores,https://ss3.4sqi.net/img/categories_v2/shops/food_grocery_,.png,4fb28a14e4b03b7ff65ab6d0,55.8282732395368,-4.284144471691732,126,,/places/4fb28a14e4b03b7ff65ab6d0,102 Kilmarnock Road,Glasgow,55.829057,-4.282675,101c6cd7749f373507e9444f5222b7f2,1
4bf58dd8d48988d16d941735,Café,Café,Cafés,https://ss3.4sqi.net/img/categories_v2/food/cafe_,.png,4c8a19302e3337048b47c041,55.83180334828397,-4.2795600590655924,361,brooklyncafe@hotmail.co.uk,/places/4c8a19302e3337048b47c041,21-23 Minard Road,Glasgow,55.829057,-4.282675,101c6cd7749f373507e9444f5222b7f2,1
4bf58dd8d48988d11b941735,Pub,Pub,Pubs,https://ss3.4sqi.net/img/categories_v2/nightlife/pub_,.png,4be07bb4cb81c9b66903668b,55.83016268498155,-4.281637502741818,138,granary@nicholsonpubs.co.uk,/places/4be07bb4cb81c9b66903668b,10 Kilmarnock Rd,Glasgow,55.829057,-4.282675,101c6cd7749f373507e9444f5222b7f2,1
4edd64a0c7ddd24ca188df1a,Fish and Chips Shop,Fish and Chips Shop,Fish and Chips Shops,https://ss3.4sqi.net/img/categories_v2/food/fishandchips_,.png,587e6f224745864e1c0f9821,55.83150573603764,-4.279235661609453,346,,/places/587e6f224745864e1c0f9821,1044 Pollokshaws Road,Glasgow,55.829057,-4.282675,101c6cd7749f373507e9444f5222b7f2,1
4bf58dd8d48988d16a941735,Bakery,Bakery,Bakeries,https://ss3.4sqi.net/img/categories_v2/food/bakery_,.png,5f36a3fcc551a43bd08a52be,55.827646942859104,-4.28219882429492,159,,/places/5f36a3fcc551a43bd08a52be,,Glasgow,55.829057,-4.282675,101c6cd7749f373507e9444f5222b7f2,1
4bf58dd8d48988d16d941735,Café,Café,Cafés,https://ss3.4sqi.net/img/categories_v2/food/cafe_,.png,5030ca70e4b047efee0958cf,55.83208785617963,-4.278272879151095,434,info@thegladcafe.co.uk,/places/5030ca70e4b047efee0958cf,1006A Pollokshaws Road,Glasgow,55.829057,-4.282675,101c6cd7749f373507e9444f5222b7f2,1
4bf58dd8d48988d116941735,Bar,Bar,Bars,https://ss3.4sqi.net/img/categories_v2/nightlife/pub_,.png,5030ca70e4b047efee0958cf,55.83208785617963,-4.278272879151095,434,info@thegladcafe.co.uk,/places/5030ca70e4b047efee0958cf,1006A Pollokshaws Road,Glasgow,55.829057,-4.282675,101c6cd7749f373507e9444f5222b7f2,1
4bf58dd8d48988d1e5931735,Music Venue,Music Venue,Music Venues,https://ss3.4sqi.net/img/categories_v2/arts_entertainment/musicvenue_,.png,5030ca70e4b047efee0958cf,55.83208785617963,-4.278272879151095,434,info@thegladcafe.co.uk,/places/5030ca70e4b047efee0958cf,1006A Pollokshaws Road,Glasgow,55.829057,-4.282675,101c6cd7749f373507e9444f5222b7f2,1
4bf58dd8d48988d1c5941735,Sandwich Spot,Sandwich Spot,Sandwich Spots,https://ss3.4sqi.net/img/categories_v2/food/deli_,.png,4cb6d8f3e262b60cb7ab71e0,55.83066857950957,-4.280050468175144,242,,/places/4cb6d8f3e262b60cb7ab71e0,"1103 Pollokshaws Road, East Renfrewshire",Glasgow,55.829057,-4.282675,101c6cd7749f373507e9444f5222b7f2,1
4bf58dd8d48988d16e941735,Fast Food Restaurant,Fast Food,Fast Food Restaurants,https://ss3.4sqi.net/img/categories_v2/food/fastfood_,.png,4cb6d8f3e262b60cb7ab71e0,55.83066857950957,-4.280050468175144,242,,/places/4cb6d8f3e262b60cb7ab71e0,"1103 Pollokshaws Road, East Renfrewshire",Glasgow,55.829057,-4.282675,101c6cd7749f373507e9444f5222b7f2,1
4bf58dd8d48988d16d941735,Café,Café,Cafés,https://ss3.4sqi.net/img/categories_v2/food/cafe_,.png,4c0ba0c3ffb8c9b6667b6d61,55.83197263469263,-4.278444458664553,417,,/places/4c0ba0c3ffb8c9b6667b6d61,Pollokshaws Rd,Glasgow,55.829057,-4.282675,101c6cd7749f373507e9444f5222b7f2,1
4bf58dd8d48988d172941735,Post Office,Post Office,Post Offices,https://ss3.4sqi.net/img/categories_v2/building/postoffice_,.png,4c87a0a1110176b0d923b840,55.83131187172799,-4.279860143125159,306,,/places/4c87a0a1110176b0d923b840,1060 Pollokshaws Road,Glasgow,55.829057,-4.282675,101c6cd7749f373507e9444f5222b7f2,1
4bf58dd8d48988d11f941735,Night Club,Night Club,Night Clubs,https://ss3.4sqi.net/img/categories_v2/nightlife/nightclub_,.png,4bd38655462cb71372b5de07,55.83121412969741,-4.278806378748333,340,,/places/4bd38655462cb71372b5de07,26 Langside Ave,Glasgow,55.829057,-4.282675,101c6cd7749f373507e9444f5222b7f2,1
4bf58dd8d48988d10f941735,Indian Restaurant,Indian,Indian Restaurants,https://ss3.4sqi.net/img/categories_v2/food/indian_,.png,4ea34c9f77c8d0ce5e54d12b,55.832124989405,-4.279464892225786,395,,/places/4ea34c9f77c8d0ce5e54d12b,26 Minard Road,Glasgow,55.829057,-4.282675,101c6cd7749f373507e9444f5222b7f2,1
4bf58dd8d48988d163941735,Park,Park,Parks,https://ss3.4sqi.net/img/categories_v2/parks_outdoors/park_,.png,4bf7d0905317a593c397fe7e,55.831517218557366,-4.270656108856201,798,les@glasgow.gov.uk,/places/4bf7d0905317a593c397fe7e,520 Langside Rd,Glasgow,55.829057,-4.282675,101c6cd7749f373507e9444f5222b7f2,1
4d4b7105d754a06374d81259,Restaurant,Restaurant,Restaurants,https://ss3.4sqi.net/img/categories_v2/food/default_,.png,546df31e498eeca6e6ab282c,55.82351612041817,-4.2880599906404555,701,,/places/546df31e498eeca6e6ab282c,,"Glasgow, UK",55.829057,-4.282675,101c6cd7749f373507e9444f5222b7f2,1
4bf58dd8d48988d1cc941735,Steakhouse,Steakhouse,Steakhouses,https://ss3.4sqi.net/img/categories_v2/food/steakhouse_,.png,5422b22e498ef2e2f6bf0c68,55.833887841737514,-4.275090396179372,715,,/places/5422b22e498ef2e2f6bf0c68,862 Pollokshaws Rd,Glasgow,55.829057,-4.282675,101c6cd7749f373507e9444f5222b7f2,1
4bf58dd8d48988d116941735,Bar,Bar,Bars,https://ss3.4sqi.net/img/categories_v2/nightlife/pub_,.png,5422b22e498ef2e2f6bf0c68,55.833887841737514,-4.275090396179372,715,,/places/5422b22e498ef2e2f6bf0c68,862 Pollokshaws Rd,Glasgow,55.829057,-4.282675,101c6cd7749f373507e9444f5222b7f2,1
4bf58dd8d48988d16a941735,Bakery,Bakery,Bakeries,https://ss3.4sqi.net/img/categories_v2/food/bakery_,.png,4d5fd0835b276dcb9fe60cc6,55.825475865438236,-4.286054328997895,450,,/places/4d5fd0835b276dcb9fe60cc6,238 Kilmarnock road,Glasgow,55.829057,-4.282675,101c6cd7749f373507e9444f5222b7f2,1
4bf58dd8d48988d16d941735,Café,Café,Cafés,https://ss3.4sqi.net/img/categories_v2/food/cafe_,.png,4d5fd0835b276dcb9fe60cc6,55.825475865438236,-4.286054328997895,450,,/places/4d5fd0835b276dcb9fe60cc6,238 Kilmarnock road,Glasgow,55.829057,-4.282675,101c6cd7749f373507e9444f5222b7f2,1
4bf58dd8d48988d118951735,Grocery Store,Grocery Store,Grocery Stores,https://ss3.4sqi.net/img/categories_v2/shops/food_grocery_,.png,5dee5195c1bac80007e4241d,55.83325,-4.27642,607,,/places/5dee5195c1bac80007e4241d,890 Pollokshaws Rd,Glasgow,55.829057,-4.282675,101c6cd7749f373507e9444f5222b7f2,1
4bf58dd8d48988d11b941735,Pub,Pub,Pubs,https://ss3.4sqi.net/img/categories_v2/nightlife/pub_,.png,4c092db47e3fc928277df182,55.825495203163364,-4.287565709849009,499,,/places/4c092db47e3fc928277df182,52 Coustonholm Road,Glasgow,55.829057,-4.282675,101c6cd7749f373507e9444f5222b7f2,1
4d4b7105d754a06374d81259,Restaurant,Restaurant,Restaurants,https://ss3.4sqi.net/img/categories_v2/food/default_,.png,4bc74c7d6501c9b6b0243e29,55.828558435133814,-4.273646334624024,566,enquiries@ivoryhotel.com,/places/4bc74c7d6501c9b6b0243e29,2-22 Camphill Ave,Glasgow,55.829057,-4.282675,101c6cd7749f373507e9444f5222b7f2,1
52f2ab2ebcbc57f1066b8b46,Supermarket,Supermarket,Supermarkets,https://ss3.4sqi.net/img/categories_v2/shops/food_grocery_,.png,4be31c9699feb71388fe81f6,55.83397984452111,-4.285721954762687,579,,/places/4be31c9699feb71388fe81f6,"Crossmyloof,",Glasgow,55.829057,-4.282675,101c6cd7749f373507e9444f5222b7f2,1
4bf58dd8d48988d16d941735,Café,Café,Cafés,https://ss3.4sqi.net/img/categories_v2/food/cafe_,.png,4c48179e19fde21efa490a76,55.82689385539982,-4.271423976283916,742,,/places/4c48179e19fde21efa490a76,33 Langside Place,Glasgow,55.829057,-4.282675,101c6cd7749f373507e9444f5222b7f2,1
4f04b10d2fb6e1c99f3db0be,Music School,Music School,Music Schools,https://ss3.4sqi.net/img/categories_v2/building/school_music_,.png,52ca1a522d654fa597fb50d3,55.830602,-4.291327,566,,/places/52ca1a522d654fa597fb50d3,113 Durward Ave,Glasgow,55.829057,-4.282675,101c6cd7749f373507e9444f5222b7f2,1
4bf58dd8d48988d11b941735,Pub,Pub,Pubs,https://ss3.4sqi.net/img/categories_v2/nightlife/pub_,.png,4ba55019f964a5207af938e3,55.827676962946036,-4.271553039052674,710,info@churchonthehill.co.uk,/places/4ba55019f964a5207af938e3,16 Algie St,Glasgow,55.829057,-4.282675,101c6cd7749f373507e9444f5222b7f2,1
4bf58dd8d48988d1e0931735,Coffee Shop,Coffee Shop,Coffee Shops,https://ss3.4sqi.net/img/categories_v2/food/coffeeshop_,.png,5af6b5d1c876c8002cdb8a28,55.82713449648108,-4.268139470842903,932,,/places/5af6b5d1c876c8002cdb8a28,50 Battlefield Road,Glasgow,55.829057,-4.282675,101c6cd7749f373507e9444f5222b7f2,1
4bf58dd8d48988d132941735,Church,Church,Churches,https://ss3.4sqi.net/img/categories_v2/building/religious_church_,.png,4cc558bf82388cfa47af7435,55.82796219763484,-4.293241389747563,670,,/places/4cc558bf82388cfa47af7435,1439 Pollokshaws Rd,Glasgow,55.829057,-4.282675,101c6cd7749f373507e9444f5222b7f2,1
4f2a25ac4b909258e854f55f,Neighborhood,Neighborhood,Neighborhoods,https://ss3.4sqi.net/img/categories_v2/parks_outdoors/neighborhood_,.png,4bf6dd7b5317a593a8f9fc7e,55.82715668608095,-4.272201061248779,687,,/places/4bf6dd7b5317a593a8f9fc7e,,Glasgow,55.829057,-4.282675,101c6cd7749f373507e9444f5222b7f2,1
4bf58dd8d48988d1e0931735,Coffee Shop,Coffee Shop,Coffee Shops,https://ss3.4sqi.net/img/categories_v2/food/coffeeshop_,.png,5baa1b522db4a9002c8d5902,55.82795659981959,-4.29425697913207,733,,/places/5baa1b522db4a9002c8d5902,1484 Pollokshaws Road,Glasgow,55.829057,-4.282675,101c6cd7749f373507e9444f5222b7f2,1
52f2ab2ebcbc57f1066b8b46,Supermarket,Supermarket,Supermarkets,https://ss3.4sqi.net/img/categories_v2/shops/food_grocery_,.png,5cd5498d1c0b34002cce4d91,55.82372515129724,-4.2936000577327755,903,customer.services@lidl.co.uk,/places/5cd5498d1c0b34002cce4d91,30 Riverford Road,Glasgow,55.829057,-4.282675,101c6cd7749f373507e9444f5222b7f2,1
4bf58dd8d48988d15a941735,Garden,Garden,Gardens,https://ss3.4sqi.net/img/categories_v2/parks_outdoors/garden_,.png,513b4a78e4b08126343cc6ac,55.828859451929766,-4.270657301937012,750,,/places/513b4a78e4b08126343cc6ac,,,55.829057,-4.282675,101c6cd7749f373507e9444f5222b7f2,1
4bf58dd8d48988d12d941735,Monument,Monument,Monuments,https://ss3.4sqi.net/img/categories_v2/building/government_monument_,.png,5358f470498ea4226bc8262f,55.827690762709416,-4.270527362823486,773,,/places/5358f470498ea4226bc8262f,"Langside Monument, Battlefield Place",Glasgow,55.829057,-4.282675,101c6cd7749f373507e9444f5222b7f2,1
4bf58dd8d48988d11b941735,Pub,Pub,Pubs,https://ss3.4sqi.net/img/categories_v2/nightlife/pub_,.png,4e3e88116365a251c703ceaf,55.825758972171805,-4.293978494802535,795,,/places/4e3e88116365a251c703ceaf,12 Greenview St.,Pollokshaws,55.829057,-4.282675,101c6cd7749f373507e9444f5222b7f2,1
4bf58dd8d48988d116941735,Bar,Bar,Bars,https://ss3.4sqi.net/img/categories_v2/nightlife/pub_,.png,59d8d1abb37e2b0a38cfed14,55.82774456571173,-4.295196098752075,795,,/places/59d8d1abb37e2b0a38cfed14,1534 Pollokshaws Road,Glasgow,55.829057,-4.282675,101c6cd7749f373507e9444f5222b7f2,1
4bf58dd8d48988d118951735,Grocery Store,Grocery Store,Grocery Stores,https://ss3.4sqi.net/img/categories_v2/shops/food_grocery_,.png,4ce4ff61ae20224b9c99d5ec,55.82718431012468,-4.270032067287065,816,,/places/4ce4ff61ae20224b9c99d5ec,"17 Millbrae Rd, Stanwell",Glasgow,55.829057,-4.282675,101c6cd7749f373507e9444f5222b7f2,1
4bf58dd8d48988d18a941735,Cricket Ground,Cricket,Cricket Grounds,https://ss3.4sqi.net/img/categories_v2/arts_entertainment/stadium_cricket_,.png,4ffa9ea2e4b054fbabdefda2,55.836280822753906,-4.284029483795166,807,,/places/4ffa9ea2e4b054fbabdefda2,,,55.829057,-4.282675,101c6cd7749f373507e9444f5222b7f2,1
4bf58dd8d48988d16c941735,Burger Joint,Burgers,Burger Joints,https://ss3.4sqi.net/img/categories_v2/food/burger_,.png,529634c311d21b0f7e41c474,55.82761725920936,-4.295577428970975,821,,/places/529634c311d21b0f7e41c474,,,55.829057,-4.282675,101c6cd7749f373507e9444f5222b7f2,1
4bf58dd8d48988d116941735,Bar,Bar,Bars,https://ss3.4sqi.net/img/categories_v2/nightlife/pub_,.png,526ea7df498e5b63e521e724,55.82761123587929,-4.295682321128873,827,,/places/526ea7df498e5b63e521e724,,Glasgow,55.829057,-4.282675,101c6cd7749f373507e9444f5222b7f2,1
4bf58dd8d48988d178941735,Dentist,Dentist,Dentists,https://ss3.4sqi.net/img/categories_v2/building/medical_dentist_,.png,4e39797b52b11b0b4aa0c3f0,55.82941269,-4.29606302,836,,/places/4e39797b52b11b0b4aa0c3f0,1425 Pollokshaws Road,Glasgow,55.829057,-4.282675,101c6cd7749f373507e9444f5222b7f2,1
4f2a25ac4b909258e854f55f,Neighborhood,Neighborhood,Neighborhoods,https://ss3.4sqi.net/img/categories_v2/parks_outdoors/neighborhood_,.png,5314f6d7e4b0e72a36e14e1d,55.82435571454151,-4.293240308761597,841,,/places/5314f6d7e4b0e72a36e14e1d,,,55.829057,-4.282675,101c6cd7749f373507e9444f5222b7f2,1
4bf58dd8d48988d163941735,Park,Park,Parks,https://ss3.4sqi.net/img/categories_v2/parks_outdoors/park_,.png,4e3f134f6365a251c7041d4f,55.82586300588566,-4.295838063458152,894,,/places/4e3f134f6365a251c7041d4f,Ashtree Road,Glasgow,55.829057,-4.282675,101c6cd7749f373507e9444f5222b7f2,1
4bf58dd8d48988d181941735,Museum,Museum,Museums,https://ss3.4sqi.net/img/categories_v2/arts_entertainment/museum_,.png,4c889b1297828cfaf1499daa,55.84973584425906,-4.273736532878135,20,museums@glasgowlife.org.uk,/places/4c889b1297828cfaf1499daa,225 Scotland St,Glasgow,55.849924,-4.273727,1036625d677b2d21e2aaec9fec0aa3cb,2
52e81612bcbc57f1066b79f4,Buffet,Buffet,Buffets,https://ss3.4sqi.net/img/categories_v2/food/default_,.png,5515b46c498edbb34c84b689,55.853512976373125,-4.272170255221232,410,,/places/5515b46c498edbb34c84b689,,,55.849924,-4.273727,1036625d677b2d21e2aaec9fec0aa3cb,2
4cce455aebf7b749d5e191f5,Soccer Field,Soccer Field,Soccer Fields,https://ss3.4sqi.net/img/categories_v2/arts_entertainment/stadium_soccer_,.png,5390b506498e3f260b17a064,55.849790963805575,-4.269078018587653,290,,/places/5390b506498e3f260b17a064,33 Scotland Street,Glasgow,55.849924,-4.273727,1036625d677b2d21e2aaec9fec0aa3cb,2
4bf58dd8d48988d1fd941735,Shopping Mall,Mall,Shopping Malls,https://ss3.4sqi.net/img/categories_v2/shops/mall_,.png,4b659aecf964a5201bf62ae3,55.852890236944674,-4.267330169677734,517,,/places/4b659aecf964a5201bf62ae3,201-211 Wallace St,Glasgow,55.849924,-4.273727,1036625d677b2d21e2aaec9fec0aa3cb,2
4bf58dd8d48988d110941735,Italian Restaurant,Italian,Italian Restaurants,https://ss3.4sqi.net/img/categories_v2/food/italian_,.png,4bc852c592b376b00b22513a,55.85376948375199,-4.279147982597351,544,enquiries@la-fiorentina.com,/places/4bc852c592b376b00b22513a,2 Paisley Rd W,Glasgow,55.849924,-4.273727,1036625d677b2d21e2aaec9fec0aa3cb,2
4bf58dd8d48988d112951735,Hardware Store,Hardware,Hardware Stores,https://ss3.4sqi.net/img/categories_v2/shops/hardware_,.png,4cbebdf21c6c6dcbb8e5695e,55.8531949025329,-4.275680127305523,383,,/places/4cbebdf21c6c6dcbb8e5695e,Watt St,Glasgow,55.849924,-4.273727,1036625d677b2d21e2aaec9fec0aa3cb,2
4bf58dd8d48988d17f941735,Movie Theater,Movie Theater,Movie Theaters,https://ss3.4sqi.net/img/categories_v2/arts_entertainment/movietheater_,.png,4b2400a8f964a520da5e24e3,55.854596,-4.2763286,543,,/places/4b2400a8f964a520da5e24e3,"Paisley Road, Glasgow Quay",Glasgow City,55.849924,-4.273727,1036625d677b2d21e2aaec9fec0aa3cb,2
4def73e84765ae376e57713a,Portuguese Restaurant,Portuguese,Portuguese Restaurants,https://ss3.4sqi.net/img/categories_v2/food/portuguese_,.png,4b64a36cf964a52074c42ae3,55.8554095,-4.275876,624,,/places/4b64a36cf964a52074c42ae3,"Unit D2 Springfield Quay, Paisley Rd W",Glasgow,55.849924,-4.273727,1036625d677b2d21e2aaec9fec0aa3cb,2
4bf58dd8d48988d1e4931735,Bowling Alley,Bowling Alley,Bowling Alleys,https://ss3.4sqi.net/img/categories_v2/arts_entertainment/bowling_,.png,4bdb267d2a3a0f4790a7adb6,55.8546776685718,-4.275094615068638,535,,/places/4bdb267d2a3a0f4790a7adb6,"Unit 2, Springfield Quay",Glasgow,55.849924,-4.273727,1036625d677b2d21e2aaec9fec0aa3cb,2
4bf58dd8d48988d112951735,Hardware Store,Hardware,Hardware Stores,https://ss3.4sqi.net/img/categories_v2/shops/hardware_,.png,4e574e7e1838c737f05b6d42,55.84967400711022,-4.266795783109067,433,,/places/4e574e7e1838c737f05b6d42,7 Scotland St.,Glasgow,55.849924,-4.273727,1036625d677b2d21e2aaec9fec0aa3cb,2
4bf58dd8d48988d1f2941735,Sporting Goods Retail,Sporting Goods Retail,Sporting Goods Retail,https://ss3.4sqi.net/img/categories_v2/shops/sports_outdoors_,.png,4e574e7e1838c737f05b6d42,55.84967400711022,-4.266795783109067,433,,/places/4e574e7e1838c737f05b6d42,7 Scotland St.,Glasgow,55.849924,-4.273727,1036625d677b2d21e2aaec9fec0aa3cb,2
4bf58dd8d48988d1e0931735,Coffee Shop,Coffee Shop,Coffee Shops,https://ss3.4sqi.net/img/categories_v2/food/coffeeshop_,.png,50ae94bde4b034c5d70585f3,55.85456440209796,-4.276594519615173,545,,/places/50ae94bde4b034c5d70585f3,Springfield Quay,Glasgow,55.849924,-4.273727,1036625d677b2d21e2aaec9fec0aa3cb,2
4bf58dd8d48988d16e941735,Fast Food Restaurant,Fast Food,Fast Food Restaurants,https://ss3.4sqi.net/img/categories_v2/food/fastfood_,.png,4b7c4dd1f964a520068b2fe3,55.85427851858149,-4.273525239086051,484,,/places/4b7c4dd1f964a520068b2fe3,"Springfield Quay, Paisley Road West, Paisley Road West",Springfield Quay,55.849924,-4.273727,1036625d677b2d21e2aaec9fec0aa3cb,2
4bf58dd8d48988d1e5931735,Music Venue,Music Venue,Music Venues,https://ss3.4sqi.net/img/categories_v2/arts_entertainment/musicvenue_,.png,4e1237f4b0fbfef99b98b87b,55.84976849203671,-4.281005904235021,454,,/places/4e1237f4b0fbfef99b98b87b,,Glasgow,55.849924,-4.273727,1036625d677b2d21e2aaec9fec0aa3cb,2
55a59bace4b013909087cb24,Ramen Restaurant,Ramen,Ramen Restaurants,https://ss3.4sqi.net/img/categories_v2/food/ramen_,.png,5e6e66f7fc840000080fbf71,55.850296,-4.281022,456,,/places/5e6e66f7fc840000080fbf71,1126 Argyle Street,Glasgow,55.849924,-4.273727,1036625d677b2d21e2aaec9fec0aa3cb,2
4bf58dd8d48988d118951735,Grocery Store,Grocery Store,Grocery Stores,https://ss3.4sqi.net/img/categories_v2/shops/food_grocery_,.png,4d063543e8d85941687a2fa6,55.85340163655928,-4.2778081404649235,462,,/places/4d063543e8d85941687a2fa6,455 Paisley Rd,Glasgow,55.849924,-4.273727,1036625d677b2d21e2aaec9fec0aa3cb,2
4f04af1f2fb6e1c99f3db0bb,Turkish Restaurant,Turkish,Turkish Restaurants,https://ss3.4sqi.net/img/categories_v2/food/turkish_,.png,4c812e6747cc224ba8af799f,55.853844,-4.279355,559,,/places/4c812e6747cc224ba8af799f,7 Paisley Road West,Glasgow,55.849924,-4.273727,1036625d677b2d21e2aaec9fec0aa3cb,2
4bf58dd8d48988d16d941735,Café,Café,Cafés,https://ss3.4sqi.net/img/categories_v2/food/cafe_,.png,4db17f3ccda14b702a45f8c7,55.8457698135898,-4.2721428824055385,472,,/places/4db17f3ccda14b702a45f8c7,,Glasgow,55.849924,-4.273727,1036625d677b2d21e2aaec9fec0aa3cb,2
5744ccdfe4b0c0459246b4b5,Indoor Play Area,Indoor Play Area,Indoor Play Areas,https://ss3.4sqi.net/img/categories_v2/parks_outdoors/playground_,.png,50f18089e4b067e9eb609739,55.85080157211861,-4.282738592355302,570,info@wonderworldsoftplay.co.uk,/places/50f18089e4b067e9eb609739,99 Middlesex Street,Glasgow,55.849924,-4.273727,1036625d677b2d21e2aaec9fec0aa3cb,2
4bf58dd8d48988d11b941735,Pub,Pub,Pubs,https://ss3.4sqi.net/img/categories_v2/nightlife/pub_,.png,4c543e9230f92d7f9bb41bba,55.853838358713354,-4.277541270253535,495,,/places/4c543e9230f92d7f9bb41bba,464-466 Paisley Rd.,Glasgow,55.849924,-4.273727,1036625d677b2d21e2aaec9fec0aa3cb,2
4bf58dd8d48988d121941735,Lounge,Lounge,Lounges,https://ss3.4sqi.net/img/categories_v2/nightlife/default_,.png,55b54074498ecddd89379f13,55.853008075100874,-4.262554612186072,776,,/places/55b54074498ecddd89379f13,111 Nelson Street,Glasgow,55.849924,-4.273727,1036625d677b2d21e2aaec9fec0aa3cb,2
52e81612bcbc57f1066b79eb,Mini Golf Course,Mini Golf,Mini Golf Courses,https://ss3.4sqi.net/img/categories_v2/parks_outdoors/golfcourse_,.png,5c1286791af852002cccc178,55.851031374579215,-4.281484278974151,499,,/places/5c1286791af852002cccc178,124 Portman Street,Glasgow,55.849924,-4.273727,1036625d677b2d21e2aaec9fec0aa3cb,2
4bf58dd8d48988d116941735,Bar,Bar,Bars,https://ss3.4sqi.net/img/categories_v2/nightlife/pub_,.png,4e468dca62e148603b735d92,55.853666,-4.278321,505,,/places/4e468dca62e148603b735d92,,Glasgow,55.849924,-4.273727,1036625d677b2d21e2aaec9fec0aa3cb,2
4bf58dd8d48988d1f2941735,Sporting Goods Retail,Sporting Goods Retail,Sporting Goods Retail,https://ss3.4sqi.net/img/categories_v2/shops/sports_outdoors_,.png,4c1e0e4463750f477d20b967,55.85256598408171,-4.280445411206414,511,,/places/4c1e0e4463750f477d20b967,30 Stanley St,Glasgow,55.849924,-4.273727,1036625d677b2d21e2aaec9fec0aa3cb,2
4bf58dd8d48988d17c941735,Casino,Casino,Casinos,https://ss3.4sqi.net/img/categories_v2/arts_entertainment/casino_,.png,4b8928e8f964a5200c2032e3,55.85497556234342,-4.274892412438737,566,infoglasgow@aleacasinos.com,/places/4b8928e8f964a5200c2032e3,Springfield Quay,Glasgow,55.849924,-4.273727,1036625d677b2d21e2aaec9fec0aa3cb,2
52e81612bcbc57f1066b7a05,English Restaurant,English,English Restaurants,https://ss3.4sqi.net/img/categories_v2/food/default_,.png,4c0a5e56009a0f47e135e9bf,55.855336368784734,-4.272993874406459,603,,/places/4c0a5e56009a0f47e135e9bf,Springfield Quay,Glasgow,55.849924,-4.273727,1036625d677b2d21e2aaec9fec0aa3cb,2
4d4b7104d754a06370d81259,Arts and Entertainment,Arts & Entertainment,Arts and Entertainment,https://ss3.4sqi.net/img/categories_v2/arts_entertainment/default_,.png,4c27a4683703d13a1f58a736,55.85467279879433,-4.273316860198975,528,,/places/4c27a4683703d13a1f58a736,Springfield Quay,Glasgow,55.849924,-4.273727,1036625d677b2d21e2aaec9fec0aa3cb,2
52e81612bcbc57f1066b79e6,Laser Tag Center,Laser Tag,Laser Tag Centers,https://ss3.4sqi.net/img/categories_v2/arts_entertainment/default_,.png,56e1c4c8498ef45e2b39e37a,55.850837,-4.281953,523,,/places/56e1c4c8498ef45e2b39e37a,124 Portman Street,,55.849924,-4.273727,1036625d677b2d21e2aaec9fec0aa3cb,2
4f4528bc4b90abdf24c9de85,Sports and Recreation,Sports and Recreation,Sports and Recreation,https://ss3.4sqi.net/img/categories_v2/shops/sports_outdoors_,.png,5548b42c498e8f785863b2ec,55.8510005756261,-4.282168300591217,539,,/places/5548b42c498e8f785863b2ec,Portman Street,Glasgow,55.849924,-4.273727,1036625d677b2d21e2aaec9fec0aa3cb,2
52e81612bcbc57f1066b79e9,Roller Rink,Roller Rink,Roller Rinks,https://ss3.4sqi.net/img/categories_v2/arts_entertainment/default_,.png,557c20e9498ec5a5aca0686b,55.850673,-4.282327,542,,/places/557c20e9498ec5a5aca0686b,Middlesex Street,,55.849924,-4.273727,1036625d677b2d21e2aaec9fec0aa3cb,2
52e81612bcbc57f1066b79f7,Persian Restaurant,Persian,Persian Restaurants,https://ss3.4sqi.net/img/categories_v2/food/middleeastern_,.png,53776f4d498e2945af514bd4,55.85348388027564,-4.264639229512896,691,,/places/53776f4d498e2945af514bd4,,,55.849924,-4.273727,1036625d677b2d21e2aaec9fec0aa3cb,2
4edd64a0c7ddd24ca188df1a,Fish and Chips Shop,Fish and Chips Shop,Fish and Chips Shops,https://ss3.4sqi.net/img/categories_v2/food/fishandchips_,.png,4c6ec1684d24b60c86a1d9d8,55.853415458352046,-4.280331455754418,565,,/places/4c6ec1684d24b60c86a1d9d8,39 Paisley Road West,Glasgow,55.849924,-4.273727,1036625d677b2d21e2aaec9fec0aa3cb,2
52e81612bcbc57f1066b7a26,Recreation Center,Recreation Center,Recreation Centers,https://ss3.4sqi.net/img/categories_v2/shops/sports_outdoors_,.png,5e29429ce2a6120008a18576,55.85112313758664,-4.282643408156918,571,,/places/5e29429ce2a6120008a18576,"Unit 3, 89, Middlesex St",Glasgow,55.849924,-4.273727,1036625d677b2d21e2aaec9fec0aa3cb,2
4f2a25ac4b909258e854f55f,Neighborhood,Neighborhood,Neighborhoods,https://ss3.4sqi.net/img/categories_v2/parks_outdoors/neighborhood_,.png,4fe9bd5200391886123850e0,55.85233856797152,-4.28193063831827,577,,/places/4fe9bd5200391886123850e0,,Glasgow,55.849924,-4.273727,1036625d677b2d21e2aaec9fec0aa3cb,2
4bf58dd8d48988d162941735,Other Great Outdoors,Other Outdoors,Other Great Outdoors,https://ss3.4sqi.net/img/categories_v2/parks_outdoors/outdoors_,.png,4c4be884f7cc1b8d70ce8a40,55.85381248007671,-4.280483656324053,603,,/places/4c4be884f7cc1b8d70ce8a40,Paisley Rd,Glasgow,55.849924,-4.273727,1036625d677b2d21e2aaec9fec0aa3cb,2
4bf58dd8d48988d1c0941735,Mediterranean Restaurant,Mediterranean,Mediterranean Restaurants,https://ss3.4sqi.net/img/categories_v2/food/mediterranean_,.png,5726150c498e9434471fae55,55.85207046338046,-4.258672191953345,968,,/places/5726150c498e9434471fae55,61 Bridge Street,Glasgow,55.849924,-4.273727,1036625d677b2d21e2aaec9fec0aa3cb,2
4bf58dd8d48988d13b941735,Education,Education,Education,https://ss3.4sqi.net/img/categories_v2/building/school_,.png,2d7d09d8e1a0444dd205396c,55.85026819487559,-4.283773284861787,627,info@theglasgowschoolofmusic.co.uk,/places/2d7d09d8e1a0444dd205396c,542 Scotland St West,Glasgow,55.849924,-4.273727,1036625d677b2d21e2aaec9fec0aa3cb,2
4bf58dd8d48988d11b941735,Pub,Pub,Pubs,https://ss3.4sqi.net/img/categories_v2/nightlife/pub_,.png,4b4b2cc4f964a520b69326e3,55.85284385860042,-4.258809236800217,985,,/places/4b4b2cc4f964a520b69326e3,58 Bridge Street,Glasgow,55.849924,-4.273727,1036625d677b2d21e2aaec9fec0aa3cb,2
4f2a25ac4b909258e854f55f,Neighborhood,Neighborhood,Neighborhoods,https://ss3.4sqi.net/img/categories_v2/parks_outdoors/neighborhood_,.png,4b845f28f964a5206f3131e3,55.85328770714334,-4.264798164367676,670,,/places/4b845f28f964a5206f3131e3,,Glasgow,55.849924,-4.273727,1036625d677b2d21e2aaec9fec0aa3cb,2
4bf58dd8d48988d1e5931735,Music Venue,Music Venue,Music Venues,https://ss3.4sqi.net/img/categories_v2/arts_entertainment/musicvenue_,.png,4b1583cef964a520fbad23e3,55.850621221763234,-4.25951013855651,890,mail@o2academyglasgow.co.uk,/places/4b1583cef964a520fbad23e3,121 Eglinton St,Glasgow,55.849924,-4.273727,1036625d677b2d21e2aaec9fec0aa3cb,2
4bf58dd8d48988d10f941735,Indian Restaurant,Indian,Indian Restaurants,https://ss3.4sqi.net/img/categories_v2/food/indian_,.png,4b5f2e93f964a5208dab29e3,55.853264487364456,-4.264524465066735,683,,/places/4b5f2e93f964a5208dab29e3,119 West St.,Glasgow,55.849924,-4.273727,1036625d677b2d21e2aaec9fec0aa3cb,2
4bf58dd8d48988d10f941735,Indian Restaurant,Indian,Indian Restaurants,https://ss3.4sqi.net/img/categories_v2/food/indian_,.png,4c63e0f886b6be9ac7898f34,55.85339309628686,-4.2641061544418335,713,,/places/4c63e0f886b6be9ac7898f34,,,55.849924,-4.273727,1036625d677b2d21e2aaec9fec0aa3cb,2
4bf58dd8d48988d130941735,Structure,Structure,Structures,https://ss3.4sqi.net/img/categories_v2/building/default_,.png,4f228a3b7bebea45094bede7,55.851597619854466,-4.284480144406462,696,,/places/4f228a3b7bebea45094bede7,43 Middlesex Street,Glasgow,55.849924,-4.273727,1036625d677b2d21e2aaec9fec0aa3cb,2
4f2a25ac4b909258e854f55f,Neighborhood,Neighborhood,Neighborhoods,https://ss3.4sqi.net/img/categories_v2/parks_outdoors/neighborhood_,.png,50069968e4b0d41b58299e77,55.84652532736271,-4.284268791704292,758,,/places/50069968e4b0d41b58299e77,,,55.849924,-4.273727,1036625d677b2d21e2aaec9fec0aa3cb,2
5454144b498ec1f095bff2f2,Construction Supplies Store,Construction,Construction Supplies Stores,https://ss3.4sqi.net/img/categories_v2/shops/realestate_,.png,5a9552930f2e41736f111fa3,55.84828,-4.261394,790,,/places/5a9552930f2e41736f111fa3,130 Salkeld St,Glasgow,55.849924,-4.273727,1036625d677b2d21e2aaec9fec0aa3cb,2
4bf58dd8d48988d1c5941735,Sandwich Spot,Sandwich Spot,Sandwich Spots,https://ss3.4sqi.net/img/categories_v2/food/deli_,.png,4cc6bd4201fb236af8b7b8ba,55.84237348736374,-4.2753316374581685,845,,/places/4cc6bd4201fb236af8b7b8ba,38 Herriet Street,Glasgow,55.849924,-4.273727,1036625d677b2d21e2aaec9fec0aa3cb,2
4bf58dd8d48988d16e941735,Fast Food Restaurant,Fast Food,Fast Food Restaurants,https://ss3.4sqi.net/img/categories_v2/food/fastfood_,.png,4cc6bd4201fb236af8b7b8ba,55.84237348736374,-4.2753316374581685,845,,/places/4cc6bd4201fb236af8b7b8ba,38 Herriet Street,Glasgow,55.849924,-4.273727,1036625d677b2d21e2aaec9fec0aa3cb,2
4bf58dd8d48988d1df941735,Bridge,Bridge,Bridges,https://ss3.4sqi.net/img/categories_v2/parks_outdoors/bridge_,.png,5794d9e0498ef64cf8bebe46,55.848874636263375,-4.261132346727014,794,,/places/5794d9e0498ef64cf8bebe46,,Glasgow,55.849924,-4.273727,1036625d677b2d21e2aaec9fec0aa3cb,2
4d954b0ea243a5684a65b473,Convenience Store,Convenience Store,Convenience Stores,https://ss3.4sqi.net/img/categories_v2/shops/conveniencestore_,.png,4bd8c3b311dcc92864b5f733,55.85706383685938,-4.274761304760728,796,,/places/4bd8c3b311dcc92864b5f733,72 Lancefield Quay,Glasgow,55.849924,-4.273727,1036625d677b2d21e2aaec9fec0aa3cb,2
4bf58dd8d48988d116951735,Antique Store,Antiques,Antique Stores,https://ss3.4sqi.net/img/categories_v2/shops/antique_,.png,67f8fc7513cfe067cee03639,55.84909110501213,-4.286738634109497,816,,/places/67f8fc7513cfe067cee03639,Kinning Park Antique Centre,Glasgow,55.849924,-4.273727,1036625d677b2d21e2aaec9fec0aa3cb,2
52e81612bcbc57f1066b7a34,Community Center,Community Center,Community Centers,https://ss3.4sqi.net/img/categories_v2/building/default_,.png,53a2101b498e9554a1355b0c,55.85081636866952,-4.287083980440119,839,,/places/53a2101b498e9554a1355b0c,40 Cornwall St.,Glasgow,55.849924,-4.273727,1036625d677b2d21e2aaec9fec0aa3cb,2
4bf58dd8d48988d1e0931735,Coffee Shop,Coffee Shop,Coffee Shops,https://ss3.4sqi.net/img/categories_v2/food/coffeeshop_,.png,4e6dac8dd4c0af8b7926266e,55.86412620033559,-4.222634317362413,52,,/places/4e6dac8dd4c0af8b7926266e,City Park,,55.864472,-4.223208,10998482c3187c80b1fc322bee154cb6,0
4bf58dd8d48988d1ca941735,Pizzeria,Pizza,Pizzerias,https://ss3.4sqi.net/img/categories_v2/food/pizza_,.png,4bd2ae30a8b3a5932063685f,55.86427564583628,-4.220678313075268,159,,/places/4bd2ae30a8b3a5932063685f,433 Alexandra Parade,Glasgow,55.864472,-4.223208,10998482c3187c80b1fc322bee154cb6,0
4bf58dd8d48988d1c5941735,Sandwich Spot,Sandwich Spot,Sandwich Spots,https://ss3.4sqi.net/img/categories_v2/food/deli_,.png,4b7400abf964a5204ec32de3,55.8642331846991,-4.220745676890283,155,,/places/4b7400abf964a5204ec32de3,433 Alexandra Parade,Glasgow,55.864472,-4.223208,10998482c3187c80b1fc322bee154cb6,0
4bf58dd8d48988d16e941735,Fast Food Restaurant,Fast Food,Fast Food Restaurants,https://ss3.4sqi.net/img/categories_v2/food/fastfood_,.png,4b7400abf964a5204ec32de3,55.8642331846991,-4.220745676890283,155,,/places/4b7400abf964a5204ec32de3,433 Alexandra Parade,Glasgow,55.864472,-4.223208,10998482c3187c80b1fc322bee154cb6,0
4bf58dd8d48988d178941735,Dentist,Dentist,Dentists,https://ss3.4sqi.net/img/categories_v2/building/medical_dentist_,.png,4e1c63da1838367bcf6c1c2d,55.86440318121181,-4.220874309539795,145,,/places/4e1c63da1838367bcf6c1c2d,672 Alexandra Parade,Glasgow,55.864472,-4.223208,10998482c3187c80b1fc322bee154cb6,0
4bf58dd8d48988d118951735,Grocery Store,Grocery Store,Grocery Stores,https://ss3.4sqi.net/img/categories_v2/shops/food_grocery_,.png,4c66b334e1da1b8dfb969bc3,55.8624275234749,-4.221182369259858,259,,/places/4c66b334e1da1b8dfb969bc3,447 Alexandra Parade,Dennistoun,55.864472,-4.223208,10998482c3187c80b1fc322bee154cb6,0
4bf58dd8d48988d118951735,Grocery Store,Grocery Store,Grocery Stores,https://ss3.4sqi.net/img/categories_v2/shops/food_grocery_,.png,61be162f8b77e8217ae18def,55.86424993507041,-4.219520006943388,231,,/places/61be162f8b77e8217ae18def,,,55.864472,-4.223208,10998482c3187c80b1fc322bee154cb6,0
4bf58dd8d48988d1c5941735,Sandwich Spot,Sandwich Spot,Sandwich Spots,https://ss3.4sqi.net/img/categories_v2/food/deli_,.png,4b681df9f964a520e2672be3,55.86248034960084,-4.221008934001881,260,,/places/4b681df9f964a520e2672be3,417 Alexandra Parade,Glasgow,55.864472,-4.223208,10998482c3187c80b1fc322bee154cb6,0
4bf58dd8d48988d172941735,Post Office,Post Office,Post Offices,https://ss3.4sqi.net/img/categories_v2/building/postoffice_,.png,4f169ea5e4b0678415e7674b,55.863562304295556,-4.217712952154029,357,,/places/4f169ea5e4b0678415e7674b,Alexandra Parade,,55.864472,-4.223208,10998482c3187c80b1fc322bee154cb6,0
52e81612bcbc57f1066b79f1,Bistro,Bistro,Bistros,https://ss3.4sqi.net/img/categories_v2/food/default_,.png,4b9b8c7cf964a520a80e36e3,55.85844400677181,-4.220630847095428,688,info@cafetibo.com,/places/4b9b8c7cf964a520a80e36e3,443 Duke St,Glasgow,55.864472,-4.223208,10998482c3187c80b1fc322bee154cb6,0
4bf58dd8d48988d1e0931735,Coffee Shop,Coffee Shop,Coffee Shops,https://ss3.4sqi.net/img/categories_v2/food/coffeeshop_,.png,4b9b8c7cf964a520a80e36e3,55.85844400677181,-4.220630847095428,688,info@cafetibo.com,/places/4b9b8c7cf964a520a80e36e3,443 Duke St,Glasgow,55.864472,-4.223208,10998482c3187c80b1fc322bee154cb6,0
4bf58dd8d48988d110941735,Italian Restaurant,Italian,Italian Restaurants,https://ss3.4sqi.net/img/categories_v2/food/italian_,.png,4bd09e83caff9521ef31cff0,55.85851112092054,-4.219489920335889,701,info@coiascafe.co.uk,/places/4bd09e83caff9521ef31cff0,477 Duke St,Glasgow,55.864472,-4.223208,10998482c3187c80b1fc322bee154cb6,0
4bf58dd8d48988d110941735,Italian Restaurant,Italian,Italian Restaurants,https://ss3.4sqi.net/img/categories_v2/food/italian_,.png,4bc9ae3ecc8cd13a94f1bbcf,55.86307058838778,-4.2124436854269085,689,claudio593@btinternet.com,/places/4bc9ae3ecc8cd13a94f1bbcf,620 Alexandra Parade,Glasgow,55.864472,-4.223208,10998482c3187c80b1fc322bee154cb6,0
4bf58dd8d48988d11b941735,Pub,Pub,Pubs,https://ss3.4sqi.net/img/categories_v2/nightlife/pub_,.png,53dbc5b9498e95d9e033d82c,55.858253622104506,-4.223328988352316,691,,/places/53dbc5b9498e95d9e033d82c,304 Duke Street,Glasgow,55.864472,-4.223208,10998482c3187c80b1fc322bee154cb6,0
4bf58dd8d48988d10f941735,Indian Restaurant,Indian,Indian Restaurants,https://ss3.4sqi.net/img/categories_v2/food/indian_,.png,4bedb5f9946c0f478bcfa263,55.85843265644371,-4.221768885855104,677,info@nakodargrill.com,/places/4bedb5f9946c0f478bcfa263,13 Annfield Pl,Glasgow,55.864472,-4.223208,10998482c3187c80b1fc322bee154cb6,0
4bf58dd8d48988d110941735,Italian Restaurant,Italian,Italian Restaurants,https://ss3.4sqi.net/img/categories_v2/food/italian_,.png,53d6a9d2498ecbe05a28c461,55.863519629528426,-4.217536526612785,369,,/places/53d6a9d2498ecbe05a28c461,,,55.864472,-4.223208,10998482c3187c80b1fc322bee154cb6,0
50327c8591d4c4b30a586d5d,Brewery,Brewery,Breweries,https://ss3.4sqi.net/img/categories_v2/food/brewery_,.png,537dcf0d498e02df07785e2f,55.86030303841021,-4.233359306025855,784,,/places/537dcf0d498e02df07785e2f,85 Drygate,Glasgow,55.864472,-4.223208,10998482c3187c80b1fc322bee154cb6,0
4bf58dd8d48988d116941735,Bar,Bar,Bars,https://ss3.4sqi.net/img/categories_v2/nightlife/pub_,.png,537dcf0d498e02df07785e2f,55.86030303841021,-4.233359306025855,784,,/places/537dcf0d498e02df07785e2f,85 Drygate,Glasgow,55.864472,-4.223208,10998482c3187c80b1fc322bee154cb6,0
52e81612bcbc57f1066b79f1,Bistro,Bistro,Bistros,https://ss3.4sqi.net/img/categories_v2/food/default_,.png,537dcf0d498e02df07785e2f,55.86030303841021,-4.233359306025855,784,,/places/537dcf0d498e02df07785e2f,85 Drygate,Glasgow,55.864472,-4.223208,10998482c3187c80b1fc322bee154cb6,0
4bf58dd8d48988d177941735,Doctor's Office,Doctor's Office,Doctor's Offices,https://ss3.4sqi.net/img/categories_v2/building/medical_doctorsoffice_,.png,4c3c4d86b36ac92887d90386,55.865819366601364,-4.229520522369572,421,,/places/4c3c4d86b36ac92887d90386,,,55.864472,-4.223208,10998482c3187c80b1fc322bee154cb6,0
4bf58dd8d48988d11b941735,Pub,Pub,Pubs,https://ss3.4sqi.net/img/categories_v2/nightlife/pub_,.png,53ac4ba4498e7605c5e57023,55.85830964427618,-4.218398045844947,747,,/places/53ac4ba4498e7605c5e57023,380 Duke St,Glasgow,55.864472,-4.223208,10998482c3187c80b1fc322bee154cb6,0
4bf58dd8d48988d16a941735,Bakery,Bakery,Bakeries,https://ss3.4sqi.net/img/categories_v2/food/bakery_,.png,4bc040b3920eb7131fba182c,55.858990272784574,-4.219399041780146,653,,/places/4bc040b3920eb7131fba182c,19-21 Whitehill St,Glasgow,55.864472,-4.223208,10998482c3187c80b1fc322bee154cb6,0
4bf58dd8d48988d16d941735,Café,Café,Cafés,https://ss3.4sqi.net/img/categories_v2/food/cafe_,.png,4bc040b3920eb7131fba182c,55.858990272784574,-4.219399041780146,653,,/places/4bc040b3920eb7131fba182c,19-21 Whitehill St,Glasgow,55.864472,-4.223208,10998482c3187c80b1fc322bee154cb6,0
52f2ab2ebcbc57f1066b8b46,Supermarket,Supermarket,Supermarkets,https://ss3.4sqi.net/img/categories_v2/shops/food_grocery_,.png,4bbc53f851b89c742948872a,55.85869993925899,-4.225450641873471,656,customer.services@lidl.co.uk,/places/4bbc53f851b89c742948872a,285 Duke St,Glasgow,55.864472,-4.223208,10998482c3187c80b1fc322bee154cb6,0
4f2a25ac4b909258e854f55f,Neighborhood,Neighborhood,Neighborhoods,https://ss3.4sqi.net/img/categories_v2/parks_outdoors/neighborhood_,.png,4e80a84c9adfd0044afa607a,55.860897914753444,-4.219102943439221,472,,/places/4e80a84c9adfd0044afa607a,,Glasgow,55.864472,-4.223208,10998482c3187c80b1fc322bee154cb6,0
4bf58dd8d48988d1df931735,BBQ Joint,BBQ,BBQ Joints,https://ss3.4sqi.net/img/categories_v2/food/bbqalt_,.png,52b6efdb498eb22aa441b53a,55.858567311486944,-4.215708469282064,805,,/places/52b6efdb498eb22aa441b53a,585 Duke St,Glasgow,55.864472,-4.223208,10998482c3187c80b1fc322bee154cb6,0
4bf58dd8d48988d16c941735,Burger Joint,Burgers,Burger Joints,https://ss3.4sqi.net/img/categories_v2/food/burger_,.png,52b6efdb498eb22aa441b53a,55.858567311486944,-4.215708469282064,805,,/places/52b6efdb498eb22aa441b53a,585 Duke St,Glasgow,55.864472,-4.223208,10998482c3187c80b1fc322bee154cb6,0
4bf58dd8d48988d172941735,Post Office,Post Office,Post Offices,https://ss3.4sqi.net/img/categories_v2/building/postoffice_,.png,4cf7be32eb096ea8e445cc48,55.85869193757278,-4.223733902645268,643,,/places/4cf7be32eb096ea8e445cc48,1 Annfield Pl,Glasgow,55.864472,-4.223208,10998482c3187c80b1fc322bee154cb6,0
4bf58dd8d48988d196941735,Hospital,Hospital,Hospitals,https://ss3.4sqi.net/img/categories_v2/building/medical_,.png,4e311b9d7d8b9b256bc82e86,55.86580263992565,-4.2312398372049485,522,,/places/4e311b9d7d8b9b256bc82e86,,Glasgow,55.864472,-4.223208,10998482c3187c80b1fc322bee154cb6,0
50327c8591d4c4b30a586d5d,Brewery,Brewery,Breweries,https://ss3.4sqi.net/img/categories_v2/food/brewery_,.png,59c6a66dc4df1d02e4877a35,55.85929,-4.230647,739,,/places/59c6a66dc4df1d02e4877a35,161 Duke St,Glasgow,55.864472,-4.223208,10998482c3187c80b1fc322bee154cb6,0
4bf58dd8d48988d196941735,Hospital,Hospital,Hospitals,https://ss3.4sqi.net/img/categories_v2/building/medical_,.png,4bd54b3d4e32d13ab9a8c080,55.86530624905061,-4.23222541809082,569,,/places/4bd54b3d4e32d13ab9a8c080,Wishart St.,Glasgow,55.864472,-4.223208,10998482c3187c80b1fc322bee154cb6,0
4bf58dd8d48988d16a941735,Bakery,Bakery,Bakeries,https://ss3.4sqi.net/img/categories_v2/food/bakery_,.png,4de8beaac65b72347a1693e0,55.85858136613555,-4.217320201299455,750,,/places/4de8beaac65b72347a1693e0,543 Duke St,Glasgow,55.864472,-4.223208,10998482c3187c80b1fc322bee154cb6,0
4bf58dd8d48988d1c5941735,Sandwich Spot,Sandwich Spot,Sandwich Spots,https://ss3.4sqi.net/img/categories_v2/food/deli_,.png,4de8beaac65b72347a1693e0,55.85858136613555,-4.217320201299455,750,,/places/4de8beaac65b72347a1693e0,543 Duke St,Glasgow,55.864472,-4.223208,10998482c3187c80b1fc322bee154cb6,0
4bf58dd8d48988d1c2941735,Molecular Gastronomy Restaurant,Molecular Gastronomy,Molecular Gastronomy Restaurants,https://ss3.4sqi.net/img/categories_v2/food/moleculargastronomy_,.png,58712cd602b60e3b6972cf10,55.85865418003842,-4.222541750997538,647,,/places/58712cd602b60e3b6972cf10,10 Annfield Pl,Glasgow,55.864472,-4.223208,10998482c3187c80b1fc322bee154cb6,0
4bf58dd8d48988d10f951735,Pharmacy,Pharmacy,Pharmacies,https://ss3.4sqi.net/img/categories_v2/shops/pharmacy_,.png,4bd6bd766f649521bb3c71ec,55.8581654193895,-4.219608306884766,735,,/places/4bd6bd766f649521bb3c71ec,350b Duke St,Glasgow,55.864472,-4.223208,10998482c3187c80b1fc322bee154cb6,0
4deefb944765f83613cdba6e,Historic and Protected Site,Historic and Protected Site,Historic and Protected Sites,https://ss3.4sqi.net/img/categories_v2/arts_entertainment/historicsite_,.png,4c989aee4804a14374a9ec0e,55.86231590741962,-4.236909556909296,887,museums@glasgowlife.org.uk,/places/4c989aee4804a14374a9ec0e,3 Castle St,Glasgow,55.864472,-4.223208,10998482c3187c80b1fc322bee154cb6,0
